stop_id,stop_name,stop_lat,stop_lon,location_type,parent_station,wheelchair_boarding
0004,"MEYLAN, REVIREE - SAYETTES",45.21205,5.76638,,GENREVIREES,0
0006,"LA TRONCHE, COMMANDANT NAL",45.20324,5.74535,,GENCOMMANAL,1
0007,"LA TRONCHE, MUSEE HEBERT",45.20564,5.74888,,GENMUSHEBER,1
0008,"LA TRONCHE, CENTRE THEOLOGIQUE",45.20617,5.75215,,GENCENTHEOL,1
0011,"MEYLAN, MALACHER",45.21128,5.78724,,GENMALACHER,1
0012,"LA TRONCHE, LA CARRONNERIE BASSE",45.20094,5.75814,,GENCARONBAS,1
0015,"MEYLAN, GRANIER",45.21024,5.78405,,GENGRANIER,1
0016,"MEYLAN, MAIRIE",45.20939,5.77782,,GENMEYLMAIR,1
0017,"MEYLAN, PISCINE DES BUCLOS",45.20883,5.77503,,GENPISBUCLO,1
0018,"MEYLAN, LE BRET",45.20598,5.77184,,GENLEBRET,1
0019,"MEYLAN, LE BRET",45.2059,5.77174,,GENLEBRET,1
0021,"MEYLAN, LA REVIREE",45.20731,5.7677,,GENREVIREE,1
0024,"GRENOBLE, VICTOR HUGO",45.19052,5.72485,,GENTROISDAU,1
0026,"MEYLAN, LES LECHERES",45.20454,5.75928,,GENLECHERES,1
0027,"MEYLAN, LES LECHERES",45.20522,5.75858,,GENLECHERES,1
0028,"MEYLAN, PLAINE FLEURIE",45.20268,5.7609,,GENPLAINEFL,1
0029,"MEYLAN, LES JAILLIERES",45.22064,5.78917,,GENJAILLIER,1
0030,"MEYLAN, SAINT-MURY",45.21947,5.78613,,GENSTMURY,0
0031,"MEYLAN, BERIVIERE",45.21882,5.78312,,GENBERIVIER,0
0032,"MEYLAN, LES MURIERS",45.21605,5.77947,,GENMURIERS,1
0033,"MEYLAN, CHAUMETIERE",45.2124,5.76983,,GENCHAUMETI,1
0034,"MEYLAN, SAINT-JEAN BOSCO",45.21282,5.77305,,GENSTJBOSCO,1
0035,"MEYLAN, LYCEE DU GRESIVAUDAN - BACHAIS",45.21416,5.7791,,GENLYCGRESI,1
0036,"MEYLAN, MONTLIVET",45.22996,5.78973,,GENMONTLIVE,0
0037,"DOMENE, DOMENE MAIRIE",45.20152,5.83821,,GENDOMENEMA,1
0038,"DOMENE, LES MORTES",45.19635,5.82887,,GENMORTES,1
0039,"MURIANETTE, LE BOURG",45.19186,5.81663,,GENBOURG,1
0040,"GIERES, LA PERRIERE",45.18902,5.81006,,GENPERRIERE,1
0041,"MURIANETTE, LA PERRIERE",45.18971,5.81173,,GENPERRIERE,1
0042,"GIERES, LE JAPIN",45.18746,5.80706,,GENLEJAPIN,1
0043,"GIERES, CHAMPRONDET",45.18578,5.80285,,GENCHAMPRON,1
0044,"GIERES, PIED DE GIERES",45.18388,5.79852,,GENPIEDGIER,1
0045,"GIERES, PIED DE GIERES",45.18381,5.79849,,GENPIEDGIER,1
0047,"MEYLAN, MONTLIVET",45.22998,5.78981,,GENMONTLIVE,0
0049,"GRENOBLE, PLACE CYMAISE",45.195,5.72917,,GENPLACECYM,1
0051,"CLAIX, LES ROSES",45.11774,5.66797,,GENROSES,1
0052,"CLAIX, LES ROSES",45.11791,5.66739,,GENROSES,1
0053,"VENON, LE CHAPON",45.17101,5.82184,,GENLECHAPON,1
0054,"VENON, LE CHAPON",45.17096,5.82185,,GENLECHAPON,0
0055,"VENON, LE REYNET",45.17007,5.81362,,GENLEREYNET,0
0056,"VENON, LE REYNET",45.1699,5.81322,,GENLEREYNET,0
0057,"GRENOBLE, MUSEE DAUPHINOIS",45.19497,5.72614,,GENMUSEEDAU,0
0059,"ECHIROLLES, DANIELLE CASANOVA",45.14448,5.70071,,GENCASANOVA,1
0060,"GRENOBLE, MUSEE DAUPHINOIS",45.19503,5.72611,,GENMUSEEDAU,0
0063,"VENON, LE PERROUD",45.17265,5.81045,,GENLEPERROU,0
0064,"VENON, LE PERROUD",45.17246,5.81036,,GENLEPERROU,0
0065,"POISAT, CENTRE SOCIO-CULTUREL",45.15827,5.75976,,GENCENSOCIO,1
0067,"VENON, SOUS-PERROUD",45.17034,5.8108,,GENSOUSPERO,0
0068,"VENON, SOUS-PERROUD",45.1703,5.81077,,GENSOUSPERO,0
0070,"SAINT-MARTIN-LE-VINOUX, L'HERMITAGE",45.21495,5.70411,,GENLHERMITA,0
0073,"VENON, LA CHENAIE",45.17058,5.80748,,GENLACHENAI,0
0074,"VENON, LA CHENAIE",45.17051,5.80746,,GENLACHENAI,0
0075,"SAINT-MARTIN-LE-VINOUX, LEVETIERE",45.22629,5.72548,,GENLEVETIER,0
0076,"GRENOBLE, EDMOND ESMONIN",45.15907,5.72674,,GENEDMOESMO,1
0080,"SAINT-MARTIN-LE-VINOUX, LEVETIERE",45.22627,5.72552,,GENLEVETIER,0
0083,"SAINT-MARTIN-LE-VINOUX, LACHAL",45.22114,5.72429,,GENLACHAL,0
0088,"SAINT-MARTIN-LE-VINOUX, LACHAL",45.22117,5.72436,,GENLACHAL,0
0089,"SAINT-MARTIN-LE-VINOUX, MAS CACHE",45.2177,5.72187,,GENLEMASGAC,0
0090,"VEUREY-VOROIZE, LA CUCHE",45.25604,5.62804,,GENLACUCHE,0
0092,"SAINT-MARTIN-LE-VINOUX, MAS CACHE",45.21735,5.72194,,GENLEMASGAC,0
0093,"VENON, MAIRIE",45.17181,5.80468,,GENVENONMAI,0
0094,"VENON, MAIRIE",45.17165,5.80482,,GENVENONMAI,0
0095,"VENON, LA VILLE",45.17377,5.80279,,GENLAVILLE,0
0096,"VENON, LA VILLE",45.17409,5.80262,,GENLAVILLE,0
0097,"SAINT-MARTIN-LE-VINOUX, LE GOMMA",45.21513,5.71914,,GENLAGOMMA,0
0100,"SAINT-MARTIN-LE-VINOUX, LE GOMMA",45.21528,5.71941,,GENLAGOMMA,0
0101,"EYBENS, LA CHATELIERE",45.16219,5.74912,,GENCHATELIE,1
0102,"EYBENS, LA CHATELIERE",45.16217,5.74903,,GENCHATELIE,1
0103,"EYBENS, LES JAVAUX",45.15112,5.74959,,GENJAVAUX,1
0104,"EYBENS, ODYSSEE",45.15337,5.74848,,GENODYSSEE,1
0105,"EYBENS, VAL D'EYBENS",45.15927,5.74557,,GENVALEYBEN,1
0106,"SAINT-MARTIN-LE-VINOUX, HOTEL BELLEVUE",45.21153,5.71775,,GENHOTELBEL,0
0107,"DOMENE, L'ORATOIRE",45.19819,5.83412,,GENORATOIRE,1
0110,"POISAT, PREMOL",45.15752,5.76412,,GENPREMOL,1
0115,"MEYLAN, HAUTS DE MEYLAN",45.2183,5.77919,,GENHTMEYLAN,0
0116,"SAINT-MARTIN-LE-VINOUX, HOTEL BELLEVUE",45.21178,5.71773,,GENHOTELBEL,0
0117,"VENON, LA SERRALIERE",45.17305,5.79822,,GENLASERRAL,0
0118,"VENON, LA SERRALIERE",45.17283,5.79806,,GENLASERRAL,0
0119,"VENON, LA FAURIE",45.17526,5.79498,,GENLAFAURIE,0
0120,"VENON, LA FAURIE",45.17542,5.79467,,GENLAFAURIE,0
0125,"SAINT-MARTIN-LE-VINOUX, LES COMBES",45.20964,5.718,,GENLESCOMBE,0
0126,"LE PONT-DE-CLAIX, GRAND GALET",45.13679,5.70813,,GENGRDGALET,1
0128,"SAINT-MARTIN-LE-VINOUX, LES COMBES",45.20972,5.71803,,GENLESCOMBE,0
0131,"GIERES, EDELWEISS",45.18108,5.78844,,GENEDELWEIS,1
0132,"GIERES, EDELWEISS",45.18116,5.78826,,GENEDELWEIS,1
0133,"SAINT-MARTIN-LE-VINOUX, LES FAUVETTES",45.20703,5.71731,,GENLESFAUVE,0
0134,"FONTAINE, GERARD PHILIPE",45.19647,5.67717,,GENGERARPHI,0
0135,"SAINT-MARTIN-LE-VINOUX, LES FAUVETTES",45.20658,5.7175,,GENLESFAUVE,0
0137,"FONTAINE, JULES GUESDE",45.1979,5.68869,,GENJULESGUE,0
0139,"FONTAINE, RUE PASTEUR",45.19421,5.69473,,GENRUEPASTE,1
0141,"SAINT-MARTIN-LE-VINOUX, PLACE DU VILLAGE",45.20386,5.71638,,GENSTMVVILA,1
0142,"SAINT-MARTIN-LE-VINOUX, PLACE DU VILLAGE",45.20384,5.71629,,GENSTMVVILA,1
0149,"SAINT-MARTIN-LE-VINOUX, RIPAILLERE",45.22685,5.72071,,GENRIPAILLE,0
0150,"FONTAINE, CHARMETTES",45.1974,5.69355,,GENCHARMETT,1
0151,"FONTAINE, CHARMETTES",45.19786,5.69305,,GENCHARMETT,1
0152,"FONTAINE, CURIE - VERCORS",45.19181,5.69499,,GENCURIVERC,1
0154,"FONTANIL-CORNILLON, RAFOUR",45.25124,5.66724,,GENRAFOUR,1
0156,"SAINT-MARTIN-LE-VINOUX, RIPAILLERE",45.22682,5.72078,,GENRIPAILLE,0
0157,"NOYAREY, LE RUISSET",45.24986,5.63156,,GENRUISSET,1
0158,"SAINT-MARTIN-LE-VINOUX, GATINET",45.22454,5.7188,,GENLEGATINE,0
0159,"NOYAREY, BASCULE",45.24291,5.63207,,GENNOYARBAS,1
0160,"NOYAREY, LES CHAULNES",45.23642,5.63803,,GENCHAULNES,1
0161,"NOYAREY, PRAPARIS - LES ROSES",45.23201,5.64523,,GENPRAPAROS,1
0162,"SAINT-MARTIN-LE-VINOUX, GATINET",45.22453,5.71878,,GENLEGATINE,0
0168,"SAINT-MARTIN-LE-VINOUX, CONRAD KILIAN",45.20592,5.70944,,GENCONRADKI,1
0169,"SAINT-MARTIN-LE-VINOUX, CONRAD KILIAN",45.20652,5.70884,,GENCONRADKI,1
0174,"SAINT-EGREVE, EGLISE",45.23999,5.68407,,GENEGLISE,1
0176,"SAINT-EGREVE, LA MONTA",45.23787,5.68891,,GENLAMONTA,1
0177,"SAINT-MARTIN-LE-VINOUX, LA RIVOIRE",45.21999,5.71511,,GENLARIVOIR,0
0180,"SASSENAGE, PRAPARIS USINE",45.22925,5.6497,,GENPRAPARIS,1
0181,"SASSENAGE, LA ROLLANDIERE",45.21502,5.66112,,GENROLLANDI,1
0184,"SAINT-MARTIN-LE-VINOUX, LA RIVOIRE",45.22001,5.71507,,GENLARIVOIR,0
0188,"SEYSSINET-PARISET, LA PLAINE",45.1726,5.69689,,GENPLAINE,1
0190,"SEYSSINET-PARISET, BEAU SITE",45.17525,5.69689,,GENBEAUSITE,1
0191,"SEYSSINET-PARISET, L'ARCHE",45.17817,5.69702,,GENCENTRSOC,1
0198,"SAINT-MARTIN-LE-VINOUX, NARBONNE",45.21395,5.71025,,GENNARBONNE,0
0202,"MEYLAN, LA DETOURBE",45.22258,5.79245,,GENDETOURBE,0
0203,"SAINT-MARTIN-LE-VINOUX, NARBONNE",45.21399,5.71026,,GENNARBONNE,0
0206,"VEUREY-VOROIZE, ILES CORDEES",45.25955,5.62603,,GENILESCORD,1
0207,"NOYAREY, SAINT-JEAN",45.2383,5.63509,,GENNOYARSTJ,1
0209,"SAINT-MARTIN-LE-VINOUX, L'HERMITAGE",45.21501,5.70418,,GENLHERMITA,0
0212,"ECHIROLLES, MARIE CURIE",45.14499,5.71727,,GENMARIECUR,0
0215,"GIERES, LE SONNANT",45.18161,5.78271,,GENSONNANT,1
0216,"MEYLAN, REVIREE - SAYETTES",45.2122,5.76726,,GENREVIREES,1
0217,"ECHIROLLES, GRUGLIASCO",45.15182,5.71016,,GENGRUGLIAS,1
0220,"VEUREY-VOROIZE, PERRIERES",45.26152,5.62492,,GENPERIERES,1
0221,"VEUREY-VOROIZE, LES ECHALIERES",45.26819,5.61932,,GENECHALIER,1
0226,"ECHIROLLES, COLONEL MANHES",45.1466,5.70156,,GENCOLMANHE,1
0227,"ECHIROLLES, MARIE CURIE",45.14499,5.71729,,GENMARIECUR,1
0228,"ECHIROLLES, GRUGLIASCO",45.15157,5.70979,,GENGRUGLIAS,1
0229,"ECHIROLLES, PAUL HEROULT",45.14728,5.71347,,GENPHEROULT,1
0230,"ECHIROLLES, MARIE CURIE",45.1447,5.71644,,GENMARIECUR,1
0232,"ECHIROLLES, GRUGLIASCO",45.15122,5.70876,,GENGRUGLIAS,1
0233,"ECHIROLLES, ECOLES HOSPITALIERES",45.14628,5.72981,,GENECOLHOSP,1
0235,"ECHIROLLES, LE CHATEAU",45.14724,5.72672,,GENCHATEAU,1
0237,"ECHIROLLES, LA RAMPE - CENTRE-VILLE",45.14967,5.71884,,GENRAMPE,1
0238,"ECHIROLLES, GRUGLIASCO",45.15122,5.70907,,GENGRUGLIAS,1
0239,"ECHIROLLES, LE CHATEAU",45.14732,5.72671,,GENCHATEAU,1
0245,"LA TRONCHE, GRANDE TRONCHE",45.20702,5.74536,,GENGDTRONCH,0
0248,"ECHIROLLES, LA RAMPE - CENTRE-VILLE",45.14965,5.71924,,GENRAMPE,1
0249,"ECHIROLLES, ECOLES HOSPITALIERES",45.14638,5.72973,,GENECOLHOSP,1
0250,"ECHIROLLES, HOPITAL SUD",45.1469,5.73274,,GENHOPITSUD,1
0251,"ECHIROLLES, HOPITAL SUD",45.14691,5.73235,,GENHOPITSUD,1
0252,"ECHIROLLES, FRANCOIS QUESNAY",45.14793,5.73494,,GENFRQUESNA,1
0253,"ECHIROLLES, FRANCOIS QUESNAY",45.1479,5.73517,,GENFRQUESNA,1
0254,"ECHIROLLES, BAYARD",45.14612,5.70442,,GENBAYARD,1
0256,"ECHIROLLES, DANIELLE CASANOVA",45.14406,5.70051,,GENCASANOVA,1
0257,"ECHIROLLES, VASSIEUX",45.14303,5.70002,,GENVASSIEUX,1
0265,"CLAIX, CARRIERE",45.1148,5.69029,,GENCARRIERE,0
0266,"CLAIX, CARRIERE",45.11472,5.69019,,GENCARRIERE,1
0267,"CLAIX, LA RONZY",45.121,5.67609,,GENRONZY,1
0268,"CLAIX, LA CHIEZE",45.12118,5.68251,,GENCHIEZE,1
0276,"ECHIROLLES, COMMANDERIE",45.14452,5.73315,,GENCOMMANDE,0
0278,"MEYLAN, LES JAILLIERES",45.22152,5.79088,,GENJAILLIER,1
0280,"MEYLAN, BERIVIERE",45.21871,5.78303,,GENBERIVIER,0
0282,"MEYLAN, LES MURIERS",45.21504,5.77969,,GENMURIERS,1
0283,"MEYLAN, SAINT-JEAN BOSCO",45.2129,5.77366,,GENSTJBOSCO,1
0284,"MEYLAN, CHAUMETIERE",45.21249,5.77129,,GENCHAUMETI,1
0288,"MEYLAN, PLAINE FLEURIE",45.20273,5.76086,,GENPLAINEFL,1
0289,"MEYLAN, LA CARRONNERIE BASSE",45.20117,5.75875,,GENCARONBAS,0
0290,"LA TRONCHE, PASCAL",45.1993,5.75549,,GENPASCAL,0
0291,"LA TRONCHE, PASCAL",45.1995,5.75528,,GENPASCAL,1
0292,"LA TRONCHE, DOYEN GOSSE",45.20136,5.75297,,GENDOYENGOS,1
0293,"LA TRONCHE, VERCORS",45.20065,5.75111,,GENVERCORS,1
0294,"LA TRONCHE, GRAND SABLON",45.19902,5.74959,,GENGRDSABLO,1
0295,"MEYLAN, PLACE DE LA LOUISIANE",45.20876,5.76321,,GENPLALOUIS,1
0296,"ECHIROLLES, MUSEE GEO CHARLES",45.14921,5.70116,,GENMUSGEOCH,1
0297,"GIERES, LE CHAMANDIER",45.18309,5.78146,,GENLECHAMAN,1
0298,"GIERES, LE CHAMANDIER",45.18309,5.7815,,GENLECHAMAN,1
0299,"MEYLAN, PLACE DE LA LOUISIANE",45.20868,5.76315,,GENPLALOUIS,1
0300,"ECHIROLLES, LE VILLAGE",45.14116,5.72025,,GENVILLAGE,1
0304,"SAINT-EGREVE, CAP 38",45.24018,5.66619,,GENCAP38,1
0305,"ECHIROLLES, SUD GALAXIE",45.14924,5.72457,,GENSUDGALAX,0
0306,"ECHIROLLES, SUD GALAXIE",45.1501,5.72484,,GENSUDGALAX,0
0313,"BRESSON, BRESSON LAGAY",45.14093,5.74998,,GENLAGAY,1
0314,"BRESSON, LAGAY",45.1408,5.74997,,GENLAGAY,1
0315,"BRESSON, MAIRIE",45.1377,5.74771,,GENBRESSON,1
0316,"BRESSON, LES VIGNES",45.13809,5.74574,,GENVIGNES,1
0317,"BRESSON, LA MARITELLE",45.14162,5.74135,,GENMARITELL,1
0318,"BRESSON, LA MARITELLE",45.14108,5.74132,,GENMARITELL,1
0327,"GRENOBLE, LES ESSARTS",45.1593,5.71376,,GENLESESSAR,1
0329,"GRENOBLE, BEAUVERT",45.16415,5.71776,,GENBEAUVERT,1
0330,"MEYLAN, AIGUINARDS-HEXAGONE",45.20608,5.76419,,GENAIGUIHEX,1
0331,"GIERES, CHAMPRONDET",45.18573,5.80291,,GENCHAMPRON,1
0333,"GIERES, EDELWEISS",45.18149,5.78755,,GENEDELWEIS,1
0334,"GIERES, EDELWEISS",45.18142,5.78771,,GENEDELWEIS,1
0335,"GIERES, ROSERAIE",45.17897,5.78098,,GENROSERAIE,1
0336,"SAINT-MARTIN-D'HERES, ANGUISSES",45.17782,5.77786,,GENANGUISSE,1
0337,"SAINT-MARTIN-D'HERES, ANGUISSES",45.1778,5.77798,,GENANGUISSE,1
0338,"SAINT-MARTIN-D'HERES, GALOCHERE",45.1787,5.77323,,GENGALOCHER,1
0339,"SAINT-MARTIN-D'HERES, ELSA TRIOLET",45.17952,5.77009,,GENELSATRIO,1
0340,"SAINT-MARTIN-D'HERES, COLI",45.18071,5.76571,,GENCOLI,1
0341,"SAINT-MARTIN-D'HERES, CITE LABEYE",45.18253,5.75906,,GENCITELABE,1
0342,"SAINT-MARTIN-D'HERES, GAY",45.1848,5.75086,,GENGAY,1
0343,"SAINT-MARTIN-D'HERES, GAY",45.18448,5.75186,,GENGAY,1
0344,"SAINT-MARTIN-D'HERES, CROIX ROUGE",45.18555,5.74786,,GENCROIXROU,1
0347,"SAINT-MARTIN-D'HERES, HENRI WALLON",45.17563,5.76392,,GENHENRIWAL,1
0348,"SAINT-MARTIN-D'HERES, PABLO NERUDA",45.17395,5.76074,,GENPABLONER,1
0349,"SAINT-MARTIN-D'HERES, PABLO NERUDA",45.17396,5.76091,,GENPABLONER,1
0350,"SAINT-MARTIN-D'HERES, 8 MAI 1945",45.17106,5.75682,,GEN8MAI1945,1
0352,"SAINT-MARTIN-D'HERES, CHOPIN",45.16605,5.75142,,GENCHOPIN,1
0353,"SAINT-MARTIN-D'HERES, CHOPIN",45.16628,5.75185,,GENCHOPIN,1
0354,"SAINT-MARTIN-D'HERES, LE MARAIS",45.16412,5.75044,,GENLEMARAIS,1
0359,"LE PONT-DE-CLAIX, FLOTTIBULLE",45.13804,5.70183,,GENFLOTTIBU,1
0360,"ECHIROLLES, GAY LUSSAC",45.13634,5.71191,,GENGAYLUSSA,1
0361,"GRENOBLE, MALHERBE",45.16897,5.73296,,GENMALHERBE,1
0362,"LE PONT-DE-CLAIX, FLOTTIBULLE",45.13804,5.7029,,GENFLOTIBUL,0
0367,"GRENOBLE, MAISON DES ANCIENS",45.15941,5.72348,,GENMAISANCI,1
0368,"MEYLAN, AIGUINARDS-HEXAGONE",45.20633,5.76406,,GENAIGUIHEX,1
0371,"SEYSSINET-PARISET, VILLAGE",45.16819,5.67886,,GENSEYSVILL,1
0372,"GRENOBLE, LOUIS JOUVET",45.16999,5.73712,,GENLOUISJOU,1
0373,"GRENOBLE, SAINT-AUGUSTIN",45.17827,5.74591,,GENSTAUGUST,1
0374,"SAINT-MARTIN-D'HERES, EDOUARD VAILLANT",45.17901,5.75507,,GENEDVAILLA,1
0375,"SAINT-MARTIN-D'HERES, PIERRE SEMARD",45.18132,5.75719,,GENPIERSEMA,1
0376,"SAINT-MARTIN-D'HERES, PIERRE SEMARD",45.18128,5.75712,,GENPIERSEMA,1
0385,"GIERES, VIGNATE",45.18928,5.77815,,GENVIGNATE,1
0386,"GIERES, VIGNATE",45.18923,5.77806,,GENVIGNATE,1
0393,"MEYLAN, MAIRIE",45.20928,5.7785,,GENMEYLMAIR,1
0394,"MEYLAN, PISCINE DES BUCLOS",45.20888,5.77538,,GENPISBUCLO,1
0396,"MEYLAN, LA REVIREE",45.20733,5.76796,,GENREVIREE,1
0401,"MEYLAN, CENTRE THEOLOGIQUE",45.20628,5.75312,,GENCENTHEOL,1
0402,"LA TRONCHE, MUSEE HEBERT",45.20561,5.7489,,GENMUSHEBER,1
0403,"LA TRONCHE, COMMANDANT NAL",45.20331,5.74561,,GENCOMMANAL,1
0409,"GRENOBLE, PLACE DES GEANTS",45.16178,5.73854,,GENPLGEANTS,1
0410,"GRENOBLE, PLACE DES GEANTS",45.16174,5.73858,,GENPLGEANTS,1
0416,"EYBENS, ODYSSEE",45.15357,5.7483,,GENODYSSEE,1
0417,"EYBENS, LES JAVAUX",45.15041,5.74987,,GENJAVAUX,1
0418,"MEYLAN, HAUTS DE MEYLAN",45.21785,5.77796,,GENHTMEYLAN,1
0419,"MEYLAN, HAUTS DE MEYLAN",45.21799,5.77829,,GENHTMEYLAN,1
0420,"MEYLAN, LA FOY",45.21681,5.77572,,GENLAFOY,1
0421,"MEYLAN, LA FOY",45.2171,5.77634,,GENLAFOY,1
0422,"CORENC, BUCLOS",45.21581,5.77226,,GENBUCLOS,1
0423,"CORENC, BUCLOS",45.2157,5.77164,,GENBUCLOS,1
0424,"CORENC, LES OISEAUX",45.21506,5.76867,,GENOISEAUX,1
0425,"CORENC, LES OISEAUX",45.21505,5.76853,,GENOISEAUX,1
0426,"CORENC, EYGALA",45.21385,5.76461,,GENEYGALA,1
0427,"CORENC, EYGALA",45.21377,5.76431,,GENEYGALA,1
0429,"CORENC, MAIRIE",45.21019,5.75279,,GENCORENCMA,1
0430,"CORENC, MONTFLEURY",45.21219,5.75757,,GENMONTFLEU,1
0432,"CORENC, MAIRIE",45.21013,5.75255,,GENCORENCMA,1
0435,"LA TRONCHE, GRANDE TRONCHE",45.20704,5.74578,,GENGDTRONCH,0
0437,"LA TRONCHE, JULES REY",45.20658,5.74278,,GENJULESREY,1
0438,"LA TRONCHE, JULES REY",45.20649,5.74237,,GENJULESREY,1
0441,"LA TRONCHE, BASTILLE",45.20461,5.73787,,GENBASTILLE,1
0443,"LA TRONCHE, PETITE TRONCHE",45.20212,5.73442,,GENPTTRONCH,1
0444,"LA TRONCHE, PETITE TRONCHE",45.20195,5.73416,,GENPTTRONCH,1
0447,"GRENOBLE, SAINT-LAURENT",45.19798,5.73263,,GENSTLAUREN,0
0448,"GRENOBLE, SAINT-LAURENT",45.19802,5.73257,,GENSTLAUREN,1
0451,"GRENOBLE, CONDORCET",45.18576,5.71934,,GENCONDORCE,1
0452,"GRENOBLE, CONDORCET",45.18577,5.71892,,GENCONDORCE,1
0454,"GRENOBLE, D'ALEMBERT",45.18422,5.71064,,GENALEMBERT,1
0455,"GRENOBLE, VALLIER - DOCTEUR CALMETTE",45.1805,5.71127,,GENDRCALME,1
0463,"FONTANIL-CORNILLON, RAFOUR",45.25118,5.66713,,GENRAFOUR,1
0471,"MEYLAN, HAUTS DE MEYLAN",45.21845,5.77908,,GENHTMEYLAN,0
0472,"SAINT-EGREVE, KARBEN",45.24241,5.67116,,GENKARBEN,1
0473,"SAINT-EGREVE, KARBEN",45.2424,5.67122,,GENKARBEN,1
0474,"SAINT-EGREVE, LA MONTA",45.238,5.68861,,GENLAMONTA,1
0476,"SAINT-EGREVE, CUVILLEUX",45.2349,5.68768,,GENCUVILLEU,1
0478,"SAINT-EGREVE, VISANCOURT",45.23317,5.68606,,GENVISANCOU,1
0480,"SAINT-EGREVE, MOUTONNEES",45.22838,5.68422,,GENMOUTONNE,1
0481,"SAINT-EGREVE, MURET",45.22618,5.68616,,GENMURET,1
0487,"MEYLAN, CHAMP ROCHAS",45.20711,5.75833,,GENCHAMROC,0
0489,"GRENOBLE, MADELEINE",45.18491,5.74324,,GENMADELEIN,1
0490,"GRENOBLE, JEANNE D'ARC",45.18191,5.74579,,GENJEANNARC,1
0491,"GRENOBLE, GRAND CHATELET",45.18182,5.74852,,GENGDCHATEL,1
0492,"MEYLAN, CHAMP ROCHAS",45.20744,5.75903,,GENCHAMROC,0
0493,"SAINT-MARTIN-D'HERES, EDMOND ROSTAND",45.17446,5.75432,,GENEDROSTAN,1
0494,"SAINT-MARTIN-D'HERES, ETIENNE GRAPPE",45.17206,5.75713,,GENETIEGRAP,1
0495,"SAINT-MARTIN-D'HERES, POTIE",45.17088,5.75859,,GENPOTIE,1
0496,"SAINT-MARTIN-D'HERES, CROIX DU PATRE",45.16828,5.7627,,GENCXPATRE,1
0499,"SAINT-MARTIN-D'HERES, MAISONS BLANCHES",45.16617,5.7646,,GENMAISBLAN,1
0500,"SAINT-MARTIN-D'HERES, GLAIEULS",45.16964,5.76358,,GENGLAIEULS,1
0501,"SAINT-MARTIN-D'HERES, SAINT-MARTIN-D'HERES VILLAGE",45.16512,5.76552,,GENSMHVILLA,1
0502,"SAINT-MARTIN-D'HERES, SAINT-MARTIN-D'HERES VILLAGE",45.16492,5.76527,,GENSMHVILLA,1
0503,"SAINT-MARTIN-D'HERES, LES ALLOVES",45.1719,5.76493,,GENALLOVES,1
0511,"GRENOBLE, CLOS D'OR",45.16955,5.72322,,GENCLOSDOR,1
0512,"GRENOBLE, ARAGO",45.19777,5.71151,,GENARAGO,1
0513,"GRENOBLE, EMILE GUEYMARD",45.19484,5.71365,,GENEMILGUEY,1
0514,"GRENOBLE, EDISON",45.18184,5.74091,,GENEDISON,1
0515,"GRENOBLE, LES BAINS",45.17821,5.74264,,GENLESBAINS,1
0516,"SAINT-MARTIN-D'HERES, PIERRE LOTI",45.16664,5.74646,,GENPIERRELO,1
0517,"SAINT-MARTIN-D'HERES, PAUL ELUARD",45.16512,5.74887,,GENPAULELUA,1
0518,"EYBENS, BEL AIR",45.16106,5.75525,,GENBELAIR,1
0519,"POISAT, ROBESPIERRE",45.15985,5.75718,,GENROBESPIE,1
0520,"POISAT, CENTRE SOCIO-CULTUREL",45.15822,5.75974,,GENCENSOCIO,1
0521,"DOMENE, CHENEVIERES",45.20673,5.82734,,GENCHENEVIE,1
0522,"DOMENE, LE PRIEURE",45.20489,5.83576,,GENPRIEURE,1
0523,"DOMENE, LE PRIEURE",45.20457,5.8361,,GENPRIEURE,1
0525,"DOMENE, LES ARNAUDS",45.20683,5.84788,,GENARNAUDS,1
0526,"DOMENE, L'ORATOIRE",45.19802,5.83362,,GENORATOIRE,1
0527,"DOMENE, LES MORTES",45.19638,5.82911,,GENMORTES,1
0528,"MURIANETTE, LES RIVETS",45.19482,5.82455,,GENRIVETS,1
0529,"MURIANETTE, LES RIVETS",45.19488,5.82488,,GENRIVETS,1
0530,"MURIANETTE, LE BOURG",45.19187,5.81647,,GENBOURG,1
0531,"SEYSSINS, CIMETIERE DES GARLETTES",45.14525,5.67679,,GENCIMETIGA,0
0533,"GIERES, LE SONNANT",45.18142,5.78156,,GENSONNANT,1
0534,"SEYSSINS, CIMETIERE DES GARLETTES",45.14531,5.67687,,GENCIMETIGA,0
0535,"SAINT-MARTIN-D'HERES, CHAMP ROMAN",45.18473,5.76846,,GENCHAMPROM,1
0536,"SAINT-MARTIN-D'HERES, NEYRPIC - BELLEDONNE",45.18684,5.75628,,GENNEYRBELL,1
0537,"SAINT-MARTIN-D'HERES, PERI - BROSSOLETTE",45.18757,5.75258,,GENPERIBROS,1
0542,"SEYSSINS, PRE NOUVEL",45.15116,5.68078,,GENPRENOUVE,1
0543,"SEYSSINS, PRE NOUVEL",45.1512,5.68077,,GENPRENOUVE,1
0544,"SEYSSINS, L'ARGOUD",45.15387,5.67998,,GENARGOUD,1
0545,"SEYSSINS, L'ARGOUD",45.15433,5.6803,,GENARGOUD,1
0553,"NOYAREY, RUE DU MAUPAS",45.2459,5.62949,,GENCHEMAUPA,0
0559,"NOYAREY, RUE DU MAUPAS",45.24586,5.62947,,GENCHEMAUPA,0
0560,"CORENC, BATONNIERE",45.22728,5.75889,,GENCHEMBATO,0
0563,"CORENC, BATONNIERE",45.22733,5.75876,,GENCHEMBATO,0
0575,"FONTAINE, CURIE - VERCORS",45.19188,5.69505,,GENCURIVERC,1
0586,"VEUREY-VOROIZE, CHEMIN DU PARC",45.27467,5.60645,,GENCHATEAUX,1
0587,"VEUREY-VOROIZE, CHEMIN DU PARC",45.27449,5.60613,,GENCHATEAUX,1
0588,"VEUREY-VOROIZE, PETIT CHATELARD",45.27657,5.61239,,GENPTCHATEL,0
0589,"VEUREY-VOROIZE, PETIT CHATELARD",45.27608,5.61213,,GENPTCHATEL,0
0590,"VEUREY-VOROIZE, LE BERYL",45.27487,5.61264,,GENBERYL,0
0591,"VEUREY-VOROIZE, LE BERYL",45.2748,5.61283,,GENBERYL,0
0592,"VEUREY-VOROIZE, MAIRIE",45.27292,5.61302,,GENVEUREYMA,0
0593,"VEUREY-VOROIZE, MAIRIE",45.27305,5.61273,,GENVEUREYMA,0
0594,"VEUREY-VOROIZE, EGLISE",45.27225,5.61564,,GENVEUREYEG,1
0595,"VEUREY-VOROIZE, EGLISE",45.27243,5.61525,,GENVEUREYEG,1
0596,"VEUREY-VOROIZE, PERRIERES",45.26209,5.6247,,GENPERIERES,1
0598,"VEUREY-VOROIZE, ILES CORDEES",45.25971,5.62608,,GENILESCORD,1
0599,"VEUREY-VOROIZE, LA CUCHE",45.25606,5.62814,,GENLACUCHE,0
0601,"NOYAREY, LE RUISSET",45.25007,5.63156,,GENRUISSET,1
0602,"NOYAREY, BASCULE",45.24292,5.63217,,GENNOYARBAS,1
0603,"NOYAREY, SAINT-JEAN",45.23891,5.63425,,GENNOYARSTJ,1
0604,"NOYAREY, LES CHAULNES",45.23655,5.63811,,GENCHAULNES,1
0605,"NOYAREY, PRAPARIS - LES ROSES",45.23226,5.64503,,GENPRAPAROS,1
0606,"SASSENAGE, PRAPARIS USINE",45.22961,5.64924,,GENPRAPARIS,1
0607,"SASSENAGE, LES ENGENIERES",45.21962,5.66033,,GENENGENIER,1
0608,"SASSENAGE, LES ENGENIERES",45.2196,5.66022,,GENENGENIER,1
0610,"SASSENAGE, LA ROLLANDIERE",45.21485,5.66123,,GENROLLANDI,1
0612,"SASSENAGE, PLACE DE LA LIBERATION",45.20671,5.66274,,GENPLIBERAT,1
0613,"SASSENAGE, TREFFORINE",45.20446,5.66499,,GENTREFFORI,1
0614,"FONTAINE, GERARD PHILIPE",45.19647,5.67704,,GENGERARPHI,1
0615,"FONTAINE, RUE DES ALPES",45.19778,5.68028,,GENRUEALPES,1
0616,"FONTAINE, MARAT",45.19915,5.68284,,GENMARAT,1
0617,"FONTAINE, MARAT",45.19909,5.68281,,GENMARAT,0
0627,"LA TRONCHE, LE GORGET",45.21529,5.74853,,GENLEGORGET,0
0628,"LA TRONCHE, LE GORGET",45.2153,5.74843,,GENLEGORGET,0
0634,"FONTAINE, JULES GUESDE",45.19791,5.68878,,GENJULESGUE,1
0637,"FONTAINE, RUE PASTEUR",45.19465,5.69451,,GENRUEPASTE,1
0641,"SEYSSINS, LE BOURNET",45.15765,5.68975,,GENBOURNET,1
0642,"SEYSSINS, LE BOURNET",45.15744,5.68999,,GENBOURNET,1
0643,"SEYSSINS, LA BAUME",45.1595,5.68969,,GENLABAUME,1
0644,"SEYSSINS, MARC SANGNIER",45.16486,5.68915,,GENMARCSANG,1
0645,"SEYSSINS, MARC SANGNIER",45.16493,5.68918,,GENMARCSANG,1
0646,"SEYSSINET-PARISET, LA PLAINE",45.1724,5.69682,,GENPLAINE,1
0647,"SEYSSINET-PARISET, L'ARCHE",45.17828,5.69699,,GENCENTRSOC,1
0649,"SAINT-MARTIN-D'HERES, PROMOTION SOCIALE",45.18714,5.76958,,GENPROMOSOC,1
0650,"SAINT-MARTIN-D'HERES, PROMOTION SOCIALE",45.18743,5.76963,,GENPROMOSOC,1
0652,"SAINT-MARTIN-D'HERES, SCIENCES SOCIALES",45.19006,5.76929,,GENSCIENSOC,1
0653,"LA TRONCHE, LE RONZAN",45.20786,5.74152,,GENLERONZA,0
0654,"SAINT-MARTIN-D'HERES, BIBLIOTHEQUES UNIVERSITAIRES",45.19166,5.77038,,GENBIBLIUNI,1
0655,"LA TRONCHE, LE RONZAN",45.20785,5.74161,,GENLERONZA,0
0656,"MEYLAN, SAINT-MURY",45.21937,5.78601,,GENSTMURY,0
0658,"MEYLAN, LYCEE DU GRESIVAUDAN - BACHAIS",45.21403,5.77904,,GENLYCGRESI,1
0662,"SAINT-MARTIN-D'HERES, BEL AIR",45.1611,5.75531,,GENBELAIR,1
0674,"EYBENS, GENERAL DE GAULLE",45.16187,5.74501,,GENDEGAULLE,1
0675,"EYBENS, GENERAL DE GAULLE",45.16148,5.74385,,GENDEGAULLE,1
0676,"MEYLAN, MAUPERTUIS",45.21285,5.79719,,GENMAUPERTU,1
0677,"MEYLAN, LES BEALIERES",45.21153,5.7907,,GENBEALIERE,1
0691,"LE GUA, LA PIERRE",44.98902,5.62164,,GENLAPIERRE,0
0692,"MIRIBEL-LANCHATRE, LE VERNAY",44.97015,5.60875,,GENLEVERNAY,0
0693,"LE GUA, SAINT-BARTHELEMY",44.99995,5.62934,,GENSTBARTHE,0
0694,"LE GUA, SAINT-BARTHELEMY",44.99986,5.62946,,GENSTBARTHE,0
0697,"SEYSSINS, LE PRIOU",45.15696,5.67871,,GENLEPRIOU,0
0715,"GRENOBLE, LOUISE MICHEL",45.16919,5.71262,,GENLMICHEL,1
0716,"GRENOBLE, LOUISE MICHEL",45.16955,5.71292,,GENLMICHEL,1
0722,"GRENOBLE, LE RONDEAU",45.16024,5.7096,,GENRONDEAU,1
0723,"GRENOBLE, LE RONDEAU",45.1612,5.7101,,GENRONDEAU,1
0726,"GRENOBLE, DOCTEUR MAZET",45.19119,5.72066,,GENDRMAZET,1
0727,"GRENOBLE, DOCTEUR MAZET",45.19108,5.72059,,GENDRMAZET,1
0730,"LA TRONCHE, DOYEN GOSSE",45.20138,5.75304,,GENDOYENGOS,1
0731,"GRENOBLE, EDMOND ESMONIN",45.15937,5.72662,,GENEDMOESMO,1
0732,"GRENOBLE, CHRISTOPHE TURC",45.16137,5.72414,,GENCHRISTUR,1
0733,"GRENOBLE, CHRISTOPHE TURC",45.16073,5.72403,,GENCHRISTUR,1
0734,"GRENOBLE, VILLAGE OLYMPIQUE",45.16411,5.72404,,GENVILLOLYM,1
0735,"GRENOBLE, VILLAGE OLYMPIQUE",45.16355,5.72393,,GENVILLOLYM,1
0736,"GRENOBLE, VIGNY",45.16744,5.72338,,GENVIGNY,1
0737,"GRENOBLE, VIGNY",45.16734,5.72335,,GENVIGNY,1
0738,"GRENOBLE, CLOS D'OR",45.16949,5.72272,,GENCLOSDOR,1
0739,"GRENOBLE, CLOS D'OR",45.16934,5.72311,,GENCLOSDOR,1
0740,"GRENOBLE, EUGENE SUE",45.17304,5.7246,,GENEUGENESU,1
0741,"GRENOBLE, EUGENE SUE",45.17284,5.72477,,GENEUGENESU,1
0742,"GRENOBLE, CAPUCHE",45.17659,5.72454,,GENCAPUCHE,1
0743,"GRENOBLE, CAPUCHE",45.17607,5.7248,,GENCAPUCHE,1
0744,"GRENOBLE, FOCH - FERRIE",45.18016,5.72339,,GENFOCHFERI,1
0745,"GRENOBLE, FOCH - FERRIE",45.18044,5.72346,,GENFOCHFERI,1
0749,"GRENOBLE, CHAMPIONNET",45.18539,5.7225,,GENCHAMPION,1
0750,"GRENOBLE, CHAMPIONNET",45.18554,5.72318,,GENCHAMPION,1
0751,"GRENOBLE, CHAMPOLLION",45.18628,5.72496,,GENCHAMPOLL,1
0752,"GRENOBLE, CHAMPOLLION",45.1862,5.72499,,GENCHAMPOLL,1
0753,"GRENOBLE, DOCTEUR MARTIN",45.1878,5.72686,,GENDRMARTIN,1
0754,"GRENOBLE, DOCTEUR MARTIN",45.18731,5.72728,,GENDRMARTIN,1
0758,"GRENOBLE, LES ESSARTS",45.15919,5.71352,,GENLESESSAR,1
0760,"GRENOBLE, BEAUVERT",45.16417,5.71792,,GENBEAUVERT,1
0763,"GRENOBLE, MASSENET",45.16771,5.72108,,GENMASSENET,1
0764,"GRENOBLE, CAPUCHE",45.17582,5.72588,,GENCAPUCHE,1
0765,"GRENOBLE, CAPUCHE",45.17615,5.72615,,GENCAPUCHE,1
0766,"GRENOBLE, RUE DES DEPORTES",45.17791,5.72737,,GENDEPORTES,1
0768,"GRENOBLE, RUE DES DEPORTES",45.1783,5.72771,,GENDEPORTES,1
0769,"GRENOBLE, GUSTAVE RIVET",45.1817,5.72783,,GENGUSTRIVE,1
0774,"SAINT-MARTIN-D'HERES, GALOCHERE",45.17878,5.77315,,GENGALOCHER,1
0775,"SAINT-MARTIN-D'HERES, ELSA TRIOLET",45.17959,5.77016,,GENELSATRIO,1
0776,"SAINT-MARTIN-D'HERES, COLI",45.18073,5.76596,,GENCOLI,1
0777,"SAINT-MARTIN-D'HERES, PORTAIL ROUGE",45.18136,5.76334,,GENPORTAILR,1
0778,"SAINT-MARTIN-D'HERES, PORTAIL ROUGE",45.1814,5.76347,,GENPORTAILR,1
0779,"SAINT-MARTIN-D'HERES, CITE LABEYE",45.18222,5.76037,,GENCITELABE,1
0780,"SAINT-MARTIN-D'HERES, MAISON COMMUNALE",45.18395,5.75378,,GENMAISONCO,1
0781,"SAINT-MARTIN-D'HERES, MAISON COMMUNALE",45.18401,5.75376,,GENMAISONCO,1
0782,"SAINT-MARTIN-D'HERES, CROIX ROUGE",45.18558,5.7479,,GENCROIXROU,1
0785,"GRENOBLE, BIR HAKEIM",45.18886,5.73639,,GENBIRHAKEI,1
0786,"GRENOBLE, BIR HAKEIM",45.18879,5.73677,,GENBIRHAKEI,1
0788,"SAINT-MARTIN-D'HERES, PIERRE COURTADE",45.17956,5.76397,,GENPIERCOUR,1
0789,"SAINT-MARTIN-D'HERES, HENRI WALLON",45.17591,5.76456,,GENHENRIWAL,1
0790,"SAINT-MARTIN-D'HERES, 8 MAI 1945",45.17106,5.75691,,GEN8MAI1945,1
0791,"SAINT-MARTIN-D'HERES, ZELLA MELHIS",45.16752,5.75421,,GENZELLAMEL,1
0792,"SAINT-MARTIN-D'HERES, LE MARAIS",45.16403,5.7507,,GENLEMARAIS,1
0793,"GRENOBLE, MAISON DES ANCIENS",45.15975,5.72325,,GENMAISANCI,1
0797,"GRENOBLE, MALHERBE",45.16892,5.73308,,GENMALHERBE,1
0798,"GRENOBLE, LOUIS JOUVET",45.16987,5.73691,,GENLOUISJOU,1
0799,"GRENOBLE, TEISSEIRE",45.17076,5.74031,,GENTEISSEIR,1
0800,"GRENOBLE, TEISSEIRE",45.17081,5.74016,,GENTEISSEIR,1
0801,"GRENOBLE, PAUL COCAT",45.17265,5.74578,,GENPAULCOCA,1
0802,"GRENOBLE, PALAIS DE JUSTICE",45.19164,5.71086,,GENPALJUSTI,1
0805,"GRENOBLE, SAINT-AUGUSTIN",45.17817,5.7454,,GENSTAUGUST,1
0806,"GRENOBLE, BON PASTEUR",45.17875,5.75089,,GENBONPASTE,1
0808,"SAINT-MARTIN-D'HERES, EDOUARD VAILLANT",45.17905,5.75493,,GENEDVAILLA,1
0814,"GRENOBLE, HOTEL DE POLICE",45.1934,5.73617,,GENHOPOLICE,1
0815,"GRENOBLE, MUTUALITE",45.1907,5.73547,,GENMUTUALIT,1
0821,"GRENOBLE, MALLIFAUD",45.18042,5.73515,,GENMALLIFAU,1
0822,"GRENOBLE, MALLIFAUD",45.18033,5.73508,,GENMALLIFAU,1
0823,"GRENOBLE, BAJATIERE",45.1783,5.73616,,GENBAJATIER,1
0824,"GRENOBLE, BAJATIERE",45.17814,5.73614,,GENBAJATIER,1
0825,"GRENOBLE, PONSARD",45.17608,5.73726,,GENPONSARD,1
0826,"GRENOBLE, PONSARD",45.17597,5.7372,,GENPONSARD,1
0827,"GRENOBLE, PAUL CLAUDEL",45.17342,5.73857,,GENPCLAUDEL,1
0828,"GRENOBLE, PAUL CLAUDEL",45.17336,5.73851,,GENPCLAUDEL,1
0829,"GRENOBLE, TEISSEIRE",45.17103,5.7398,,GENTEISSEIR,1
0830,"GRENOBLE, TEISSEIRE",45.17091,5.73971,,GENTEISSEIR,1
0831,"GRENOBLE, JEAN RACINE",45.16755,5.74151,,GENJRACINE,1
0832,"GRENOBLE, JEAN RACINE",45.16682,5.74175,,GENJRACINE,1
0834,"GRENOBLE, NOTRE-DAME - MUSEE",45.19392,5.73216,,GENNOTREDAM,1
0835,"GRENOBLE, NOTRE-DAME - MUSEE",45.19411,5.73192,,GENNOTREDAM,1
0836,"GRENOBLE, HOTEL DE POLICE",45.1941,5.73571,,GENHOPOLICE,1
0837,"GRENOBLE, SAINT-ROCH",45.19167,5.7379,,GENSTROCH,1
0838,"GRENOBLE, SAINT-ROCH",45.19173,5.73799,,GENSTROCH,1
0840,"GRENOBLE, SAINT-BRUNO",45.18588,5.71363,,GENSTBRUNO,1
0842,"LE GUA, PRELENFREY EGLISE",45.01693,5.6133,,GENPRELENFR,0
0843,"GRENOBLE, VALLIER - DOCTEUR CALMETTE",45.18044,5.71018,,GENDRCALME,1
0844,"GRENOBLE, CHAMPS-ELYSEES",45.17794,5.71025,,GENCHAMPSEL,1
0845,"GRENOBLE, CHAMPS-ELYSEES",45.17831,5.71056,,GENCHAMPSEL,1
0846,"GRENOBLE, SALENGRO",45.17557,5.70893,,GENSALENGRO,1
0847,"GRENOBLE, SALENGRO",45.17566,5.70887,,GENSALENGRO,1
0850,"GRENOBLE, ANATOLE FRANCE",45.17209,5.70505,,GENANATFRAN,1
0851,"GRENOBLE, ANATOLE FRANCE",45.17186,5.70495,,GENANATFRAN,1
0853,"GRENOBLE, CITE PAUL MISTRAL",45.16863,5.70487,,GENCITEPMIS,1
0854,"GRENOBLE, CITE PAUL MISTRAL",45.16855,5.70479,,GENCITEPMIS,1
0855,"GRENOBLE, BACHELARD",45.16669,5.70665,,GENBACHELAR,1
0856,"GRENOBLE, BACHELARD",45.16718,5.7052,,GENBACHELAR,1
0859,"GRENOBLE, VERLAINE",45.16193,5.71613,,GENVERLAINE,1
0860,"GRENOBLE, VERLAINE",45.16163,5.71603,,GENVERLAINE,1
0863,"SAINT-EGREVE, MOUTONNEES",45.22809,5.68436,,GENMOUTONNE,1
0872,"GRENOBLE, MADELEINE",45.18515,5.74324,,GENMADELEIN,1
0873,"GRENOBLE, JEANNE D'ARC",45.18177,5.74518,,GENJEANNARC,1
0874,"SAINT-MARTIN-D'HERES, GRAND CHATELET",45.18194,5.74841,,GENGDCHATEL,1
0876,"SAINT-MARTIN-D'HERES, BON PASTEUR",45.17939,5.75087,,GENBONPASTE,1
0877,"GRENOBLE, BON PASTEUR",45.17823,5.75147,,GENBONPASTE,1
0878,"SAINT-MARTIN-D'HERES, EDMOND ROSTAND",45.17441,5.75429,,GENEDROSTAN,1
0879,"SAINT-MARTIN-D'HERES, ETIENNE GRAPPE",45.17213,5.75712,,GENETIEGRAP,1
0880,"SAINT-MARTIN-D'HERES, POTIE",45.1709,5.75848,,GENPOTIE,1
0881,"SAINT-MARTIN-D'HERES, CROIX DU PATRE",45.16821,5.76174,,GENCXPATRE,1
0882,"SAINT-MARTIN-D'HERES, GLAIEULS",45.17006,5.76398,,GENGLAIEULS,1
0884,"GRENOBLE, VERDUN - PREFECTURE",45.18828,5.73163,,GENVERDUN,1
0889,"GRENOBLE, CITE JEAN MACE",45.19996,5.7105,,GENCITEMACE,1
0890,"GRENOBLE, ARAGO",45.19709,5.71174,,GENARAGO,1
0891,"GRENOBLE, EMILE GUEYMARD",45.19502,5.71351,,GENEMILGUEY,1
0892,"GRENOBLE, GARES",45.19159,5.7152,,GENGARES,1
0893,"GRENOBLE, GARES",45.19093,5.71541,,GENGARES,1
0894,"GRENOBLE, FELIX VIALLET",45.19068,5.71769,,GENFELIXVIA,1
0895,"GRENOBLE, FELIX VIALLET",45.19073,5.71847,,GENFELIXVIA,1
0896,"GRENOBLE, AUGUSTE RAVIER",45.18399,5.73965,,GENAUGURAVI,1
0897,"GRENOBLE, AUGUSTE RAVIER",45.18378,5.73885,,GENAUGURAVI,1
0898,"GRENOBLE, CLEMENCEAU",45.18388,5.74107,,GENCLEMENCE,0
0900,"GRENOBLE, EDISON",45.18115,5.74129,,GENEDISON,1
0901,"GRENOBLE, LES BAINS",45.17889,5.74249,,GENLESBAINS,1
0902,"GRENOBLE, PAUL COCAT",45.17196,5.74543,,GENPAULCOCA,1
0903,"GRENOBLE, LEON JOUHAUX",45.169,5.74444,,GENLEONJOUH,1
0904,"GRENOBLE, LEON JOUHAUX",45.16928,5.74462,,GENLEONJOUH,1
0905,"SAINT-MARTIN-D'HERES, PIERRE LOTI",45.16666,5.74656,,GENPIERRELO,1
0906,"SAINT-MARTIN-D'HERES, PAUL ELUARD",45.16506,5.7491,,GENPAULELUA,1
0909,"SAINT-MARTIN-D'HERES, CLINIQUE BELLEDONNE",45.18591,5.76032,,GENCLINBELD,1
0910,"SAINT-MARTIN-D'HERES, CLINIQUE BELLEDONNE",45.18598,5.76095,,GENCLINBELD,1
0911,"SAINT-MARTIN-D'HERES, NEYRPIC - BELLEDONNE",45.1867,5.75716,,GENNEYRBELL,1
0912,"SAINT-MARTIN-D'HERES, PERI - BROSSOLETTE",45.18761,5.7526,,GENPERIBROS,1
0915,"SASSENAGE, PLACE DE LA LIBERATION",45.20682,5.66281,,GENPLIBERAT,1
0917,"SASSENAGE, TREFFORINE",45.2041,5.66525,,GENTREFFORI,1
0918,"SASSENAGE, PRE FLEURY",45.20183,5.66763,,GENPREFLEUR,1
0919,"SASSENAGE, PRE FLEURY",45.20145,5.66791,,GENPREFLEUR,1
0920,"SASSENAGE, LES PIES",45.19957,5.66989,,GENLESPIES,1
0921,"SASSENAGE, LES PIES",45.19952,5.66985,,GENLESPIES,1
0923,"GRENOBLE, BERRIAT-LE MAGASIN",45.18849,5.70581,,GENBERRIAT,1
0924,"GRENOBLE, BERRIAT-LE MAGASIN",45.18867,5.70591,,GENBERRIAT,1
0925,"GRENOBLE, CEMOI",45.1849,5.70564,,GENCEMOI,1
0926,"GRENOBLE, CEMOI",45.18495,5.70573,,GENCEMOI,1
0948,"GRENOBLE, CITE JEAN MACE",45.20038,5.71123,,GENCITEMACE,1
0949,"SAINT-EGREVE, SAN MARINO BARRAGE",45.23677,5.66028,,GENSAMMARIN,0
0956,"MEYLAN, LA DETOURBE",45.22278,5.7927,,GENDETOURBE,0
0968,"LA TRONCHE, HOPITAL MICHALLON",45.1973,5.74707,,GENHOPMICHA,0
0969,"LA TRONCHE, HOPITAL MICHALLON",45.19714,5.74758,,GENHOPMICHA,0
0971,"EYBENS, ALPEXPO",45.15449,5.73379,,GENALPEXPO,1
0972,"GRENOBLE, POLESUD - ALPEXPO",45.15715,5.73384,,GENPOLESUD,1
0973,"EYBENS, ALPEXPO",45.15422,5.73367,,GENALPEXPO,1
0974,"GRENOBLE, POLESUD - ALPEXPO",45.15706,5.73368,,GENPOLESUD,1
0976,"SEYSSINS, RONDEAU",45.16022,5.69369,,GENSEYSROND,1
0977,"SEYSSINS, RONDEAU",45.16036,5.69373,,GENSEYSROND,1
0978,"GRENOBLE, FOCH - FERRIE",45.18068,5.72251,,GENFOCH,1
0979,"GRENOBLE, FOCH - FERRIE",45.18092,5.72255,,GENFOCH,1
0984,"SAINT-EGREVE, VENCE ECOPARC",45.22745,5.66853,,GENVENCEECO,1
0985,"SAINT-EGREVE, VENCE ECOPARC",45.22773,5.66846,,GENVENCEECO,1
0987,"LE GUA, MAIRIE",45.02219,5.64454,,GENLEGUAMAI,0
0988,"LE GUA, MAIRIE",45.02211,5.64457,,GENLEGUAMAI,0
0989,"LE GUA, LES ROSSETS",45.01679,5.64081,,GENROSSETS,0
0990,"LE GUA, LES ROSSETS",45.01657,5.64083,,GENROSSETS,0
0991,"LE GUA, LA CHARRIERE",45.01277,5.61587,,GENLACHARRI,0
0992,"LE GUA, LA CHARRIERE",45.01286,5.61595,,GENLACHARRI,0
0993,"LE GUA, LES FAURES",45.01439,5.61354,,GENLESFAURE,0
0994,"LE GUA, LES FAURES",45.01447,5.61372,,GENLESFAURE,0
0995,"LE GUA, LA PIERRE",44.98916,5.62198,,GENLAPIERRE,0
0997,"MIRIBEL-LANCHATRE, CASSOULET",44.9818,5.623,,GENCASSOULE,0
0998,"MIRIBEL-LANCHATRE, CASSOULET",44.98229,5.62309,,GENCASSOULE,0
0999,"MIRIBEL-LANCHATRE, BAYANNE",44.98074,5.62288,,GENBAYANNE,0
1000,"MIRIBEL-LANCHATRE, BAYANNE",44.97996,5.62235,,GENBAYANNE,0
1001,"MIRIBEL-LANCHATRE, MIRIBEL",44.9747,5.62087,,GENMIRIBEL,0
1002,"MIRIBEL-LANCHATRE, MIRIBEL",44.97466,5.621,,GENMIRIBEL,0
1012,"SAINT-MARTIN-LE-VINOUX, COL DE CLEMENCIERES",45.23437,5.72578,,GENCOLCLEME,0
1016,"NOYAREY, PARC DES BICHES",45.24919,5.62928,,GENPARCBICH,0
1019,"VARCES-ALLIERES-ET-RISSET, NOTRE-DAME DE LACHAL",45.08732,5.69015,,GENNODAMLAC,0
1020,"VARCES-ALLIERES-ET-RISSET, NOTRE-DAME DE LACHAL",45.08736,5.69011,,GENNODAMLAC,0
1021,"VARCES-ALLIERES-ET-RISSET, BERLIOGNIERE",45.08984,5.69258,,GENBERLIOGN,0
1022,"VARCES-ALLIERES-ET-RISSET, BERLIOGNIERE",45.08999,5.6925,,GENBERLIOGN,0
1023,"MEYLAN, GRESIVAUDAN",45.20969,5.7612,,GENGRESIVAU,1
1024,"VARCES-ALLIERES-ET-RISSET, BALZAC",45.08729,5.69415,,GENBALZAZ,0
1027,"SAINT-EGREVE, PONT DE VENCE",45.23038,5.6835,,GENPTVENCE,1
1028,"SAINT-EGREVE, VISANCOURT",45.23296,5.68577,,GENVISANCOU,1
1029,"SAINT-EGREVE, MURET",45.22587,5.68629,,GENMURET,1
1032,"VARCES-ALLIERES-ET-RISSET, BALZAC",45.08728,5.69421,,GENBALZAZ,0
1034,"VARCES-ALLIERES-ET-RISSET, ROZATIERE",45.08711,5.70253,,GENROZATIER,0
1035,"ECHIROLLES, ANTOINE POLOTTI",45.14834,5.7232,,GENPOLOTTI,1
1037,"GIERES, UNIVERSITES - BIOLOGIE",45.19195,5.77525,,GENBIOLOGIE,1
1040,"VARCES-ALLIERES-ET-RISSET, ROZATIERE",45.08706,5.70241,,GENROZATIER,0
1041,"VARCES-ALLIERES-ET-RISSET, FONTAGNEUX",45.08729,5.70779,,GENFONTAGNE,0
1042,"VARCES-ALLIERES-ET-RISSET, FONTAGNEUX",45.08728,5.70786,,GENFONTAGNE,0
1043,"VARCES-ALLIERES-ET-RISSET, MALISSOLLES",45.08385,5.70458,,GENMALISSOL,0
1044,"VARCES-ALLIERES-ET-RISSET, MALISSOLLES",45.08396,5.7047,,GENMALISSOL,0
1045,"GIERES, LE JAPIN",45.18782,5.80781,,GENLEJAPIN,1
1046,"SAINT-MARTIN-D'HERES, LES ALLOVES",45.17204,5.76518,,GENALLOVES,1
1047,"ECHIROLLES, MONMOUSSEAU",45.15327,5.7115,,GENMONMOUSS,1
1048,"LE PONT-DE-CLAIX, GRAND GALET",45.13682,5.70834,,GENGRDGALET,1
1049,"GRENOBLE, GUSTAVE RIVET",45.1812,5.72806,,GENGUSTRIVE,1
1050,"GRENOBLE, MASSENET",45.16799,5.72124,,GENMASSENET,1
1051,"ECHIROLLES, MONMOUSSEAU",45.15355,5.71188,,GENMONMOUSS,1
1053,"VARCES-ALLIERES-ET-RISSET, LE GROS CHENE",45.07834,5.70205,,GENGROSCHEN,0
1056,"VARCES-ALLIERES-ET-RISSET, LE GROS CHENE",45.07832,5.7021,,GENGROSCHEN,0
1057,"VIF, LE REFUGE",45.07466,5.69955,,GENLEREFUGE,0
1058,"VIF, LE REFUGE",45.07462,5.69959,,GENLEREFUGE,0
1059,"VIF, RUE DE LA SACRISTIE",45.07061,5.69518,,GENSACRISTI,0
1060,"SAINT-MARTIN-D'HERES, ZELLA MELHIS",45.16707,5.75354,,GENZELLAMEL,1
1061,"EYBENS, LES ECOLES",45.16143,5.74306,,GENLESECOLE,1
1062,"VIF, RUE DE LA SACRISTIE",45.07081,5.69538,,GENSACRISTI,0
1063,"VIF, ECOLE REYMURE",45.06914,5.69332,,GENECOLEREY,0
1064,"VIF, ECOLE REYMURE",45.06908,5.69334,,GENECOLEREY,0
1065,"VIF, LA PLAINE",45.06663,5.69198,,GENLAPLAINE,0
1067,"GRENOBLE, BON PASTEUR",45.17859,5.7499,,GENBONPASTE,1
1070,"GRENOBLE, MUTUALITE",45.19046,5.73663,,GENMUTUALIT,1
1071,"MEYLAN, GRANIER",45.21027,5.78454,,GENGRANIER,1
1073,"VIF, LA PLAINE",45.06686,5.69213,,GENLAPLAINE,0
1074,"SAINT-MARTIN-D'HERES, HOUILLE BLANCHE",45.17794,5.7517,,GENHOUILLEB,1
1076,"SAINT-EGREVE, EGLISE",45.24016,5.68385,,GENEGLISE,1
1080,"DOMENE, RENE CASSIN",45.2045,5.84416,,GENRENECASS,1
1081,"DOMENE, RENE CASSIN",45.20424,5.84373,,GENRENECASS,1
1083,"VIF, JACOBINS",45.06444,5.69131,,GENJACOBINS,0
1085,"VIF, JACOBINS",45.06461,5.69128,,GENJACOBINS,0
1086,"ECHIROLLES, ANTOINE POLOTTI",45.14861,5.72251,,GENPOLOTTI,1
1087,"ECHIROLLES, FERNAND PELLOUTIER",45.15075,5.71561,,GENPELLOUTI,1
1088,"ECHIROLLES, MUSEE GEO CHARLES",45.14879,5.70172,,GENMUSGEOCH,1
1089,"VIF, LE PETIT BRION",45.06228,5.69011,,GENPETIBRIO,0
1090,"EYBENS, CHAMP FILA",45.15627,5.75497,,GENCHAMPFIL,1
1091,"EYBENS, LES RUIRES-BOETIE",45.14932,5.74122,,GENRUIRES,1
1092,"EYBENS, ODYSSEE",45.15247,5.74848,,GENODYSSEE,1
1093,"EYBENS, CHAMP FILA",45.15627,5.75505,,GENCHAMPFIL,1
1094,"POISAT, CENTRE SOCIO-CULTUREL",45.15941,5.76012,,GENCENSOCIO,1
1095,"ECHIROLLES, FERNAND PELLOUTIER",45.15084,5.71482,,GENPELLOUTI,1
1097,"BRESSON, MAIRIE",45.13775,5.74816,,GENBRESSON,1
1100,"VIF, LE PETIT BRION",45.06225,5.69018,,GENPETIBRIO,0
1101,"VIF, MAS GARNI",45.06056,5.68779,,GENMASGARNI,0
1106,"VEUREY-VOROIZE, LES MARRONNIERS",45.27636,5.61105,,GENMARRONNI,0
1107,"VEUREY-VOROIZE, LES MARRONNIERS",45.27594,5.61,,GENMARRONNI,0
1109,"FONTAINE, LA SURE",45.20281,5.68574,,GENLASURE,0
1110,"SEYSSINET-PARISET, LES ILES",45.1841,5.69716,,GENLESILES,1
1111,"SEYSSINET-PARISET, LES ILES",45.18417,5.69713,,GENLESILES,1
1112,"MEYLAN, LES BEALIERES",45.21146,5.79145,,GENBEALIERE,1
1113,"MEYLAN, LYCEE DU GRESIVAUDAN",45.21334,5.78103,,GENLYCGRESI,1
1114,"VIF, MAS GARNI",45.06078,5.68819,,GENMASGARNI,0
1118,"SAINT-MARTIN-D'HERES, LE CARINA",45.16238,5.76305,,GENCARINA,1
1119,"SAINT-MARTIN-D'HERES, LE CARINA",45.16235,5.76287,,GENCARINA,1
1120,"GRENOBLE, ABBE GREGOIRE",45.18388,5.71174,,GENABBEGREG,1
1121,"SASSENAGE, CHAMECHAUDE",45.20511,5.68348,,GENCHAMECHA,0
1122,"FONTAINE, CHAMECHAUDE",45.20504,5.6835,,GENCHAMECHA,0
1124,"CLAIX, LA CHIEZE",45.12151,5.68143,,GENCHIEZE,1
1125,"CLAIX, LA RONZY",45.12083,5.67593,,GENRONZY,1
1126,"FONTAINE, LA SURE",45.20279,5.68586,,GENLASURE,0
1127,"VIF, ALLEE DES GRANGES",45.05788,5.68479,,GENALEGRANG,0
1128,"FONTAINE, SAINT-EYNARD",45.20113,5.69021,,GENSTEYNARD,1
1129,"FONTAINE, SAINT-EYNARD",45.2014,5.68991,,GENSTEYNARD,1
1130,"VIF, ALLEE DES GRANGES",45.05795,5.68472,,GENALEGRANG,0
1131,"VIF, Z.A. DES SPEYRES",45.05691,5.68171,,GENZASPEYRE,0
1133,"VIF, Z.A. DES SPEYRES",45.0569,5.68184,,GENZASPEYRE,0
1134,"LA TRONCHE, VERCORS",45.20065,5.75103,,GENVERCORS,1
1138,"GRENOBLE, MARCEAU JARDIN DES VALLONS",45.18245,5.72217,,GENMARCEAU,1
1139,"GRENOBLE, MARCEAU JARDIN DES VALLONS",45.18263,5.72195,,GENMARCEAU,1
1140,"VIF, RUE DE L'ESPERE",45.05486,5.67766,,GENRUEESPER,0
1141,"VIF, RUE DE L'ESPERE",45.05481,5.67762,,GENRUEESPER,0
1142,"VIF, RUE DU NORD",45.0543,5.6752,,GENRUENORD,0
1143,"VIF, RUE DU NORD",45.05433,5.67537,,GENRUENORD,0
1145,"GRENOBLE, VEYRET",45.19479,5.7248,,GENVEYRET,0
1149,"SEYSSINET-PARISET, CENTRE-VILLAGE",45.17052,5.68071,,GENCENTRVIL,0
1152,"GRENOBLE, CHORIER - CONDORCET",45.18593,5.71744,,GENCHORCOND,1
1153,"GRENOBLE, CHORIER - CONDORCET",45.18588,5.71725,,GENCHORCOND,1
1160,"DOMENE, LES VERNES",45.20736,5.83392,,GENVERNES,1
1161,"DOMENE, LES VERNES",45.20713,5.83398,,GENVERNES,1
1165,"POISAT, CENTRE SOCIO-CULTUREL",45.15899,5.75955,,GENCENSOCIO,1
1166,"ECHIROLLES, LE VILLAGE",45.14133,5.72057,,GENVILLAGE,1
1167,"CORENC, MONTFLEURY",45.21186,5.75637,,GENMONTFLEU,1
1168,"EYBENS, LES SAULES",45.16296,5.7411,,GENSAULES,0
1169,"EYBENS, LES SAULES",45.16292,5.74115,,GENSAULES,0
1170,"CORENC, CROIX DE MONTFLEURY",45.20879,5.74934,,GENCXMONTFL,1
1173,"MEYLAN, MALACHER",45.21122,5.78722,,GENMALACHER,1
1177,"SAINT-EGREVE, PONT DE VENCE",45.23013,5.68332,,GENPTVENCE,1
1181,"VEUREY-VOROIZE, LES ECHALIERES",45.26824,5.61944,,GENECHALIER,1
1182,"GIERES, UNIVERSITES - BIOLOGIE",45.19195,5.77474,,GENBIOLOGIE,1
1184,"SAINT-MARTIN-D'HERES, SCIENCES SOCIALES",45.19017,5.76921,,GENSCIENSOC,1
1185,"ECHIROLLES, DENIS PAPIN",45.13887,5.71323,,GENDENPAPIN,1
1186,"ECHIROLLES, DENIS PAPIN",45.13825,5.71271,,GENDENPAPIN,1
1187,"ECHIROLLES, AUGUSTE FERRIER",45.14483,5.70962,,GENAUGUFERR,1
1188,"EYBENS, VAL D'EYBENS",45.15905,5.74558,,GENVALEYBEN,1
1191,"ECHIROLLES, AUGUSTE DELAUNE",45.14267,5.71648,,GENADELAUNE,0
1192,"ECHIROLLES, AUGUSTE DELAUNE",45.14275,5.71609,,GENADELAUNE,0
1193,"ECHIROLLES, GAY LUSSAC",45.13645,5.71214,,GENGAYLUSSA,1
1195,"SAINT-EGREVE, CUVILLEUX",45.23469,5.68741,,GENCUVILLEU,1
1199,"ECHIROLLES, VAILLANT-COUTURIER",45.14881,5.70593,,GENVAILCOUT,1
1200,"ECHIROLLES, VAILLANT-COUTURIER",45.1482,5.70554,,GENVAILCOUT,1
1201,"ECHIROLLES, ECUREUIL",45.14383,5.70423,,GENECUREUIL,1
1202,"GRENOBLE, XAVIER JOUVIN",45.1956,5.73009,,GENXAVJOUVI,1
1203,"ECHIROLLES, ECUREUIL",45.14355,5.70399,,GENECUREUIL,1
1204,"SAINT-MARTIN-D'HERES, LE MARAIS",45.16372,5.75108,,GENLEMARAIS,0
1205,"LE PONT-DE-CLAIX, FLOTTIBULLE",45.13791,5.70227,,GENFLOTTIBU,1
1207,"LE PONT-DE-CLAIX, ALLEES DE NICE",45.13198,5.70024,,GENALLENICE,1
1208,"LE PONT-DE-CLAIX, ALLEES DE NICE",45.13166,5.7,,GENALLENICE,1
1209,"ECHIROLLES, BAYARD",45.1464,5.70511,,GENBAYARD,1
1210,"LE PONT-DE-CLAIX, FLOTTIBULLE",45.13786,5.70205,,GENFLOTTIBU,1
1211,"LE PONT-DE-CLAIX, CLOS DOMINIQUE",45.13546,5.70127,,GENCLOSDOMI,1
1212,"LE PONT-DE-CLAIX, MARCELLINE",45.12614,5.69829,,GENMARCELLI,1
1214,"LE PONT-DE-CLAIX, MARCELLINE",45.12553,5.69795,,GENMARCELLI,1
1215,"ECHIROLLES, BAYARD",45.14565,5.70465,,GENBAYARD,1
1216,"ECHIROLLES, QUINZAINE",45.15167,5.70689,,GENQUINZAIN,1
1218,"LE PONT-DE-CLAIX, ILES DE MARS",45.13034,5.69971,,GENILESMARS,1
1219,"LE PONT-DE-CLAIX, ILES DE MARS",45.12976,5.69936,,GENILESMARS,1
1220,"ECHIROLLES, ECOLE DE MUSIQUE JEAN WIENER",45.14072,5.70301,,GENECOLMUSI,1
1221,"ECHIROLLES, ECOLE DE MUSIQUE JEAN WIENER",45.14122,5.70336,,GENECOLMUSI,1
1222,"ECHIROLLES, RENE THOMAS",45.15393,5.70747,,GENRENETHOM,1
1223,"ECHIROLLES, RENE THOMAS",45.15455,5.70786,,GENRENETHOM,1
1224,"ECHIROLLES, QUINZAINE",45.15149,5.70664,,GENQUINZAIN,1
1225,"CLAIX, POMPIDOU",45.11993,5.69255,,GENPOMPIDOU,1
1226,"ECHIROLLES, BAYARD",45.14603,5.70431,,GENBAYARD,1
1227,"LE PONT-DE-CLAIX, CLOS DOMINIQUE",45.13581,5.70155,,GENCLOSDOMI,1
1230,"ECHIROLLES, COLONEL MANHES",45.14647,5.70177,,GENCOLMANHE,1
1232,"GIERES, ROSERAIE",45.17901,5.78101,,GENROSERAIE,1
1236,"EYBENS, ODYSSEE",45.1529,5.74902,,GENODYSSEE,1
1238,"ECHIROLLES, PAUL LANGEVIN",45.14346,5.72313,,GENLANGEVIN,1
1239,"ECHIROLLES, PAUL LANGEVIN",45.14327,5.72275,,GENLANGEVIN,1
1241,"CORENC, LE CEDRE",45.20726,5.75533,,GENCEDRE,1
1242,"LA TRONCHE, BASTILLE",45.20444,5.7376,,GENBASTILLE,1
1244,"FONTAINE, RUE DES ALPES",45.19832,5.68145,,GENRUEALPES,0
1245,"POISAT, ROBESPIERRE",45.1598,5.75735,,GENROBESPIE,1
1249,"MEYLAN, JULES FLANDRIN",45.20877,5.75903,,GENJFLANDRI,1
1251,"SEYSSINS, LA BAUME",45.16052,5.68996,,GENLABAUME,1
1252,"VEUREY-VOROIZE, LA RIVE",45.26981,5.61825,,GENVEUREYRI,1
1253,"VEUREY-VOROIZE, LA RIVE",45.26974,5.618,,GENVEUREYRI,1
1258,"SEYSSINET-PARISET, BEAU SITE",45.17592,5.69696,,GENBEAUSITE,1
1259,"MEYLAN, LE CEDRE",45.2078,5.75673,,GENCEDRE,1
1260,"CORENC, JULES FLANDRIN",45.20829,5.7578,,GENJFLANDRI,1
1261,"EYBENS, LES RUIRES-BOETIE",45.14936,5.74115,,GENRUIRES,1
1262,"CORENC, GRESIVAUDAN",45.20997,5.76177,,GENGRESIVAU,1
1263,"SEYSSINET-PARISET, CENTRE-VILLAGE",45.17051,5.68077,,GENCENTRVIL,1
1264,"ECHIROLLES, PAUL HEROULT",45.1478,5.71286,,GENPHEROULT,1
1265,"SAINT-MARTIN-D'HERES, BIBLIOTHEQUES UNIVERSITAIRES",45.19169,5.77029,,GENBIBLIUNI,1
1266,"CLAIX, POMPIDOU",45.11986,5.69267,,GENPOMPIDOU,1
1269,"BRESSON, LES VIGNES",45.13808,5.74566,,GENVIGNES,1
1270,"ECHIROLLES, AUGUSTE FERRIER",45.14491,5.70976,,GENAUGUFERR,1
1272,"GRENOBLE, CLOS D'OR",45.16946,5.72255,,GENCLOSDOR,1
1273,"GRENOBLE, PAUL COCAT",45.17226,5.74478,,GENPAULCOCA,1
1277,"SAINT-MARTIN-D'HERES, CHAMP ROMAN",45.18434,5.76769,,GENCHAMPROM,1
1278,"DOMENE, DOMENE MAIRIE",45.20137,5.83815,,GENDOMENEMA,1
1282,"SAINT-MARTIN-D'HERES, PIERRE COURTADE",45.17952,5.76358,,GENPIERCOUR,1
1283,"GIERES, UNIVERSITES - IUT - UFRAPS",45.19766,5.77588,,GENIUTUFRAP,1
1285,"SAINT-MARTIN-D'HERES, CHAMP ROMAN",45.1839,5.76816,,GENCHAMPROM,1
1286,"SAINT-MARTIN-D'HERES, COLI",45.18028,5.76626,,GENCOLI,1
1287,"SAINT-MARTIN-D'HERES, COLI",45.18085,5.76695,,GENCOLI,1
1292,"SAINT-EGREVE, KARBEN",45.24299,5.67118,,GENKARBEN,1
1293,"SAINT-EGREVE, KARBEN",45.24291,5.67138,,GENKARBEN,1
1294,"SAINT-EGREVE, CAP 38",45.23996,5.66654,,GENCAP38,1
1295,"SAINT-EGREVE, LA BIOLLE - GARE",45.23522,5.66953,,GENGARESNCF,1
1296,"SAINT-EGREVE, LA BIOLLE - GARE",45.2355,5.66988,,GENGARESNCF,0
1297,"SAINT-EGREVE, SAINT EGREVE GARE",45.23581,5.67154,,GENSTEGVGAR,1
1298,"SAINT-EGREVE, BELLEDONNE",45.22268,5.684,,GENBELLEDON,1
1299,"SAINT-EGREVE, BELLEDONNE",45.22272,5.68403,,GENBELLEDON,1
1303,"SAINT-EGREVE, LES GLAIRAUX",45.21852,5.67991,,GENGLAIRAUX,1
1304,"SAINT-EGREVE, LES GLAIRAUX",45.21878,5.67956,,GENGLAIRAUX,1
1310,"LE PONT-DE-CLAIX, LA LUIRE",45.14003,5.69852,,GENLALUIRE,1
1316,"EYBENS, GENERAL DE GAULLE",45.16113,5.74449,,GENDEGAULLE,1
1317,"EYBENS, GENERAL DE GAULLE",45.1624,5.74402,,GENDEGAULLE,1
1318,"EYBENS, LE BOURG",45.14791,5.75117,,GENLEBOURG,1
1319,"EYBENS, LE BOURG",45.14781,5.75116,,GENLEBOURG,1
1327,"GRENOBLE, LE RABOT",45.19505,5.72342,,GENRABOT,1
1329,"SAINT-EGREVE, FIANCEY - PREDIEU",45.22352,5.68752,,GENPREDIEU,1
1330,"SAINT-EGREVE, FIANCEY - PREDIEU",45.22339,5.68704,,GENPREDIEU,1
1333,"EYBENS, LA GRANGE DU CHATEAU",45.1485,5.75257,,GENGRANGECH,1
1359,"ECHIROLLES, GUY MOCQUET",45.14548,5.72585,,GENGUYMOCQU,1
1360,"ECHIROLLES, GUY MOCQUET",45.14511,5.72519,,GENGUYMOCQU,1
1361,"SASSENAGE, LE GUA",45.20969,5.66443,,GENLEGUA,1
1362,"SASSENAGE, L'OVALIE",45.20967,5.66695,,GENOVALIE,1
1365,"SASSENAGE, LE GUA",45.20971,5.66437,,GENLEGUA,1
1373,"NOYAREY, VILLAGE",45.24725,5.62706,,GENNOYVILLA,0
1374,"NOYAREY, VILLAGE",45.24726,5.62711,,GENNOYVILLA,0
1376,"SAINT-EGREVE, SAINT EGREVE GARE",45.23531,5.67151,,GENSTEGVGAR,1
1379,"LE PONT-DE-CLAIX, IRENE JOLIOT CURIE",45.12742,5.69856,,GENIRENEJOL,1
1380,"LE PONT-DE-CLAIX, IRENE JOLIOT CURIE",45.128,5.69892,,GENIRENEJOL,1
1383,"ECHIROLLES, VISCOSE",45.15791,5.70904,,GENVISCOSE,1
1384,"ECHIROLLES, VISCOSE",45.15738,5.70865,,GENVISCOSE,1
1399,"SASSENAGE, COMPLEXE SPORTIF",45.21142,5.67272,,GENCOMPLEXE,1
1400,"SASSENAGE, FRANCOIS BLUMET",45.20966,5.677,,GENFRBLUMET,0
1403,"GRENOBLE, MARTYRS - RESISTANCE",45.2081,5.69661,,GENMARESIST,1
1404,"GRENOBLE, MARTYRS - RESISTANCE",45.20844,5.69644,,GENMARESIST,1
1406,"SASSENAGE, FRANCOIS BLUMET",45.20994,5.67673,,GENFRBLUMET,0
1407,"SASSENAGE, COMPLEXE SPORTIF",45.21136,5.67252,,GENCOMPLEXE,1
1438,"SAINT-MARTIN-LE-VINOUX, COLLEGE CHARTREUSE",45.21784,5.69096,,GENCOLCHART,0
1441,"LA TRONCHE, SABLONS",45.19751,5.75366,,GENSABLONS,1
1442,"LA TRONCHE, SABLONS",45.19678,5.75299,,GENSABLONS,1
1444,"GRENOBLE, DOCTEUR SCHWEITZER",45.17245,5.70632,,GENDRSCHWEI,1
1446,"GRENOBLE, FLAUBERT - CLOS D'OR",45.17049,5.72791,,GENFLAUCLOS,1
1447,"GRENOBLE, STALINGRAD-ALLIES",45.17188,5.72396,,GENSTALALLI,1
1448,"GRENOBLE, MARCHE D'INTERET NATIONAL",45.17354,5.71805,,GENMAINNATI,1
1449,"GRENOBLE, ALLIES",45.17479,5.714,,GENALLIES,1
1450,"GRENOBLE, LYS ROUGE",45.17304,5.71057,,GENLYSROUGE,1
1451,"GRENOBLE, RHIN ET DANUBE",45.17497,5.70522,,GENRHINDANU,1
1452,"GRENOBLE, VALLIER - CATANE",45.17968,5.70546,,GENVALLCATA,1
1453,"GRENOBLE, VALLIER - CATANE",45.17967,5.7053,,GENVALLCATA,1
1454,"GRENOBLE, RHIN ET DANUBE",45.17511,5.70511,,GENRHINDANU,1
1455,"GRENOBLE, ALLIES",45.17445,5.71408,,GENALLIES,1
1456,"GRENOBLE, MARCHE D'INTERET NATIONAL",45.17342,5.71808,,GENMAINNATI,1
1457,"GRENOBLE, STALINGRAD-ALLIES",45.17153,5.72483,,GENSTALALLI,1
1458,"GRENOBLE, FLAUBERT - CLOS D'OR",45.17063,5.72723,,GENFLAUCLOS,1
1467,"SAINT-MARTIN-LE-VINOUX, HOTEL DE VILLE",45.20826,5.70685,,GENMAIRIESM,1
1472,"LE GUA, LES SAILLANTS",45.02463,5.6458,,GENSAILLANT,0
1473,"LE GUA, LES SAILLANTS",45.02451,5.64571,,GENSAILLANT,0
1474,"VIF, LE PONT DE GENEVREY",45.02792,5.65124,,GENPONTGENE,0
1475,"VIF, LE PONT DE GENEVREY",45.02852,5.65171,,GENPONTGENE,0
1476,"VIF, L'USINE NORD",45.02988,5.65278,,GENUSINENOR,0
1477,"VIF, L'USINE NORD",45.03,5.65281,,GENUSINENOR,0
1478,"VIF, LE RIF",45.03258,5.65578,,GENLERIF,1
1479,"VIF, LE RIF",45.0323,5.65546,,GENLERIF,1
1480,"VIF, LA GRANGE",45.03916,5.66118,,GENGRANGE,0
1481,"VIF, LA GRANGE",45.03933,5.66127,,GENGRANGE,0
1482,"VIF, LE CHALET",45.04355,5.66449,,GENCHALET,0
1483,"VIF, LE CHALET",45.04333,5.6644,,GENCHALET,0
1484,"VIF, LA CIME DU BOURG",45.04825,5.66746,,GENCIMEBOUR,0
1485,"VIF, LA CIME DU BOURG",45.04812,5.66739,,GENCIMEBOUR,0
1486,"VIF, GENDARMERIE",45.05308,5.6766,,GENVIFGEND,1
1487,"VIF, GENDARMERIE",45.05301,5.67655,,GENVIFGEND,0
1488,"VIF, MAIRIE",45.05584,5.66897,,GENVIFMAIRI,1
1489,"VIF, MAIRIE",45.05601,5.6686,,GENVIFMAIRI,1
1490,"VIF, LES GARCINS",45.06461,5.67053,,GENGARCINS,0
1491,"VIF, LES GARCINS",45.06315,5.66934,,GENGARCINS,0
1492,"VARCES-ALLIERES-ET-RISSET, PELISSIERE",45.07039,5.67505,,GENPELISIER,0
1493,"VARCES-ALLIERES-ET-RISSET, PELISSIERE",45.07057,5.67506,,GENPELISIER,0
1496,"SAINT-PAUL-DE-VARCES, PLACE",45.07167,5.6426,,GENSPAULMAI,0
1497,"SAINT-PAUL-DE-VARCES, LA CROIX",45.07055,5.64494,,GENCROIX,0
1498,"SAINT-PAUL-DE-VARCES, LA CROIX",45.0705,5.64492,,GENCROIX,0
1499,"SAINT-PAUL-DE-VARCES, LA GARDE",45.07049,5.65062,,GENGARDE,0
1500,"SAINT-PAUL-DE-VARCES, LA GARDE",45.07042,5.65059,,GENGARDE,0
1501,"SAINT-PAUL-DE-VARCES, LA BASCULE",45.07181,5.65496,,GENBASCULE,0
1502,"SAINT-PAUL-DE-VARCES, LA BASCULE",45.07174,5.65502,,GENBASCULE,0
1503,"SAINT-PAUL-DE-VARCES, LE POULAT",45.07444,5.66002,,GENPOULAT,0
1504,"SAINT-PAUL-DE-VARCES, LE POULAT",45.07439,5.66012,,GENPOULAT,0
1505,"SAINT-PAUL-DE-VARCES, LE MEINGET",45.07973,5.66297,,GENMEINGET,0
1506,"SAINT-PAUL-DE-VARCES, LE MEINGET",45.07922,5.66282,,GENMEINGET,0
1531,"MURIANETTE, LA BRIOT",45.19328,5.82041,,GENBRIOT,1
1532,"MURIANETTE, LA BRIOT",45.19299,5.81948,,GENBRIOT,1
1548,"SAINT-EGREVE, ROCHEPLEINE",45.24435,5.67492,,GENROCHEPLE,1
1549,"SAINT-EGREVE, ROCHEPLEINE",45.24459,5.67517,,GENROCHEPLE,1
1550,"SAINT-MARTIN-D'HERES, CHAMP ROMAN",45.18453,5.76746,,GENCHAMPROM,1
1557,"GRENOBLE, GRAND'PLACE",45.15924,5.73249,,GENGRDPLACE,1
1558,"GRENOBLE, GRAND'PLACE",45.1589,5.73205,,GENGRDPLACE,1
1560,"ECHIROLLES, LES GLIERES",45.14962,5.71167,,GENGLIERES,0
1561,"ECHIROLLES, LES GLIERES",45.1497,5.7116,,GENGLIERES,0
1563,"GRENOBLE, FLANDRIN - VALMY",45.18649,5.74435,,GENVALMY,1
1564,"GRENOBLE, FLANDRIN - VALMY",45.18656,5.74436,,GENVALMY,1
1565,"GIERES, PLACE DE LA REPUBLIQUE",45.18207,5.79269,,GENPLREPUBL,1
1566,"GIERES, PLACE DE LA REPUBLIQUE",45.1821,5.79257,,GENPLREPUBL,1
1568,"GRENOBLE, GRAND'PLACE",45.15893,5.73179,,GENGRDPLACE,1
1570,"GRENOBLE, GRAND'PLACE",45.15926,5.73197,,GENGRDPLACE,1
1572,"GRENOBLE, DOCTEUR SCHWEITZER",45.17238,5.70678,,GENDRSCHWEI,1
1573,"GRENOBLE, HENRI DUNANT",45.17441,5.7083,,GENHDUNANT,1
1574,"SAINT-EGREVE, CAP DES H'",45.21732,5.68127,,GENCAPDESH,0
1575,"EYBENS, LE VERDERET",45.14694,5.75428,,GENVERDERET,1
1577,"EYBENS, LE VERDERET",45.14697,5.75434,,GENVERDERET,1
1578,"EYBENS, MAISONS NEUVES",45.16518,5.74269,,GENMAISNEUV,1
1579,"EYBENS, MAISONS NEUVES",45.16491,5.74252,,GENMAISNEUV,1
1580,"GRENOBLE, DOCTEUR MARTIN",45.18679,5.72798,,GENDRMARTIN,0
1582,"LA TRONCHE, HOPITAL",45.20151,5.74237,,GENTRONCHOP,1
1583,"LA TRONCHE, HOPITAL",45.20067,5.74203,,GENTRONCHOP,0
1584,"EYBENS, MAISONS NEUVES",45.16475,5.74232,,GENMAISNEUV,1
1589,"CORENC, CROIX DE MONTFLEURY",45.20883,5.74926,,GENCXMONTFL,1
1590,"GRENOBLE, SAINT-BRUNO",45.18592,5.71403,,GENSTBRUNO,1
1591,"SASSENAGE, L'OVALIE",45.20976,5.66693,,GENOVALIE,1
1596,"GRENOBLE, DOCTEUR MARTIN",45.18705,5.72738,,GENDRMARTIN,0
1597,"GRENOBLE, DOCTEUR MARTIN",45.18705,5.72711,,GENDRMARTIN,0
1598,"SASSENAGE, MALADIERE",45.20763,5.68023,,GENMALADIER,0
1599,"VEUREY-VOROIZE, CHATELARD",45.27353,5.60481,,GENCHATELAR,1
1601,"GRENOBLE, VICTOR HUGO",45.18955,5.72492,,GENVICTHUGO,1
1602,"GRENOBLE, VICTOR HUGO",45.18906,5.72533,,GENVICTHUGO,1
1603,"CORENC, LE CEDRE",45.20793,5.75527,,GENCEDRE,0
1604,"CORENC, LE CEDRE",45.20783,5.75552,,GENCEDRE,0
1605,"MEYLAN, CROIX DE CIBEINS",45.226,5.7842,,GENCXCIBENS,0
1606,"MEYLAN, CROIX DE CIBEINS",45.22566,5.78461,,GENCXCIBENS,0
1608,"CLAIX, VAL D'ALLIERES",45.1069,5.66532,,GENVALALLIE,0
1611,"FONTAINE, LA POYA",45.19727,5.6722,,GENLAPOYA,1
1612,"FONTAINE, LA POYA",45.19708,5.67257,,GENLAPOYA,1
1613,"FONTAINE, LA POYA",45.19721,5.67203,,GENLAPOYA,1
1614,"SAINT-EGREVE, CAP DES H'",45.21705,5.68147,,GENCAPDESH,1
1617,"GRENOBLE, VERLAINE",45.1621,5.71605,,GENVERLAINE,1
1618,"GRENOBLE, VERLAINE",45.16237,5.71617,,GENVERLAINE,1
1623,"EYBENS, L'ILIADE",45.14744,5.74621,,GENILIADE,1
1624,"EYBENS, L'ILIADE",45.14667,5.74481,,GENILIADE,1
1630,"GRENOBLE, HOTEL DE VILLE",45.18743,5.73751,,GENGREHOTEL,1
1631,"GRENOBLE, HOTEL DE VILLE",45.18754,5.73736,,GENGREHOTEL,1
1633,"LA TRONCHE, CARRONNERIE - ILE D'AMOUR",45.2006,5.75804,,GENCARONRIE,1
1636,"MEYLAN, PLAINE FLEURIE",45.20332,5.76211,,GENPLAINEFL,1
1637,"MEYLAN, FACULTE DE PHARMACIE",45.2119,5.77457,,GENFACPHARM,1
1638,"MEYLAN, FACULTE DE PHARMACIE",45.2115,5.77393,,GENFACPHARM,1
1639,"MEYLAN, LA REVIREE",45.20741,5.76798,,GENREVIREE,1
1641,"MEYLAN, LYCEE DU GRESIVAUDAN",45.21341,5.78085,,GENLYCGRESI,1
1642,"MEYLAN, LA DETOURBE",45.22341,5.79375,,GENDETOURBE,0
1645,"GRENOBLE, RAYMOND CHANAS",45.15942,5.73774,,GENRAYCHANA,1
1646,"GRENOBLE, RAYMOND CHANAS",45.15968,5.73822,,GENRAYCHANA,1
1651,"SEYSSINET-PARISET, CIMETIERE",45.16967,5.68346,,GENCIMESEYP,1
1652,"SEYSSINET-PARISET, PERCEVALIERE",45.17016,5.68682,,GENPERCEVAL,1
1654,"SEYSSINET-PARISET, SEYSSINET-PARISET HOTEL DE VILLE",45.18078,5.69708,,GENSEYHDV,1
1655,"SEYSSINS, GRAND PRE - CENTRE SUD",45.17084,5.69457,,GENCENTRESU,1
1656,"FONTAINE, LOUIS MAISONNAT",45.18912,5.69409,,GENMAISONNA,1
1659,"FONTAINE, LOUIS MAISONNAT",45.18906,5.69444,,GENMAISONNA,1
1660,"SEYSSINET-PARISET, SEYSSINET-PARISET HOTEL DE VILLE",45.18109,5.69707,,GENSEYHDV,1
1661,"SEYSSINET-PARISET, GRAND PRE - CENTRE SUD",45.17095,5.69462,,GENCENTRESU,1
1662,"SEYSSINET-PARISET, PERCEVALIERE",45.17027,5.6865,,GENPERCEVAL,1
1665,"FONTAINE, ANCIENNE MAIRIE",45.19298,5.67786,,GENANCIEMAI,1
1666,"FONTAINE, ANCIENNE MAIRIE",45.19272,5.67806,,GENANCIEMAI,1
1667,"FONTAINE, JEAN PREVOST",45.18999,5.68237,,GENJEANPREV,1
1668,"FONTAINE, JEAN PREVOST",45.18955,5.68276,,GENJEANPREV,1
1669,"FONTAINE, KARL MARX",45.18675,5.68707,,GENKARLMARX,1
1670,"FONTAINE, KARL MARX",45.18652,5.68729,,GENKARLMARX,1
1671,"SEYSSINET-PARISET, ARISTIDE BERGES",45.18422,5.69149,,GENARBERGES,0
1672,"SEYSSINET-PARISET, BERGES - VERCORS",45.18424,5.6919,,GENARBERGES,1
1678,"ECHIROLLES, GARE",45.15321,5.71927,,GENECHIGARD,0
1686,"FONTAINE, PLACE DU MARCHE CACHIN",45.19589,5.69065,,GENPLACMARC,1
1689,"SAINT-MARTIN-D'HERES, NEYRPIC - BELLEDONNE",45.18587,5.75758,,GENNEYRBELL,1
1690,"SAINT-MARTIN-D'HERES, NEYRPIC - BELLEDONNE",45.18591,5.75743,,GENNEYRBELL,1
1691,"SAINT-MARTIN-LE-VINOUX, LOUIS GAGNIERE",45.21485,5.68576,,GENGAGNIERE,0
1692,"VIF, URIOL",45.06067,5.66866,,GENURIOL,1
1693,"VIF, URIOL",45.06064,5.66856,,GENURIOL,0
1694,"VARCES-ALLIERES-ET-RISSET, CHAMBORD",45.08501,5.66718,,GENCHAMBORD,0
1695,"VARCES-ALLIERES-ET-RISSET, CHAMBORD",45.08519,5.66714,,GENCHAMBORD,0
1696,"GRENOBLE, CHAVANT",45.18502,5.73233,,GENCHAVANT,1
1698,"GRENOBLE, CHAVANT",45.18482,5.73245,,GENCHAVANT,1
1699,"EYBENS, LA MARITELLE",45.14415,5.74057,,GENMARITELL,1
1700,"EYBENS, LA MARITELLE",45.14402,5.74011,,GENMARITELL,1
1732,"ECHIROLLES, DRAC",45.14938,5.69417,,GENDRAC2,1
1733,"ECHIROLLES, DRAC",45.14895,5.69397,,GENDRAC2,1
1734,"ECHIROLLES, COMBOIRE",45.14583,5.69082,,GENCOMBOIRE,1
1736,"SEYSSINS, LES NALETTES",45.15212,5.68897,,GENNALETTES,1
1737,"SEYSSINS, HAMEAU DES CHAUMIERES",45.15464,5.68953,,GENCHAUMIER,1
1738,"SEYSSINS, LE PRISME",45.16632,5.69038,,GENPRISME,1
1739,"SEYSSINS, LE PRISME",45.16639,5.69055,,GENPRISME,1
1740,"SEYSSINS, GARLETTES",45.14748,5.67773,,GENGARLETTE,0
1742,"CLAIX, LA CROIX ROLLAND",45.12942,5.67122,,GENCRXROLLA,0
1744,"CLAIX, LA CROIX ROLLAND",45.1292,5.67128,,GENCRXROLLA,0
1746,"SEYSSINS, GARLETTES",45.14733,5.67772,,GENGARLETTE,0
1747,"SEYSSINS, HAMEAU DES CHAUMIERES",45.1547,5.68938,,GENCHAUMIER,1
1749,"SEYSSINS, LE PRISME",45.16636,5.69037,,GENPRISME,1
1750,"CLAIX, COL DE COMBOIRE",45.14019,5.67317,,GENCOLCOMBO,1
1751,"CLAIX, COL DE COMBOIRE",45.14004,5.6732,,GENCOLCOMBO,1
1755,"SEYSSINS, PARC FRANCOIS MITTERRAND",45.16282,5.68532,,GENPFMITTER,1
1756,"SEYSSINS, PARC FRANCOIS MITTERRAND",45.16287,5.6853,,GENPFMITTER,1
1757,"SEYSSINS, L'AGNEAU",45.1613,5.68296,,GENLAGNEAU,1
1758,"SEYSSINS, BEAUVOIR",45.15899,5.68325,,GENBEAUVOIR,0
1765,"GRENOBLE, DRIANT",45.18259,5.73409,,GENDRIANT,1
1766,"GRENOBLE, DRIANT",45.18229,5.7341,,GENDRIANT,1
1767,"GRENOBLE, DOCTEUR MARTIN",45.18678,5.72783,,GENDRMARTIN,1
1768,"SEYSSINS, PLACE DU VILLAGE",45.1558,5.68089,,GENPLACEVIL,1
1770,"DOMENE, COUBERTIN",45.20004,5.83528,,GENCOUBERTI,1
1771,"DOMENE, COUBERTIN",45.20003,5.83537,,GENCOUBERTI,1
1772,"SEYSSINET-PARISET, TUILERIE",45.16904,5.69208,,GENTUILERIE,1
1773,"SEYSSINS, TUILERIE",45.16906,5.69215,,GENTUILERIE,1
1774,"SAINT-MARTIN-D'HERES, MAISONS BLANCHES",45.16674,5.76339,,GENMAISBLAN,1
1779,"SEYSSINET-PARISET, ARISTIDE BERGES",45.18507,5.69455,,GENARBERGES,1
1780,"SEYSSINET-PARISET, ARISTIDE BERGES",45.18551,5.69465,,GENARBERGES,1
1783,"GRENOBLE, ANDRE ARGOUGES",45.17592,5.74404,,GENARGOUGES,1
1784,"GRENOBLE, ANDRE ARGOUGES",45.17506,5.74475,,GENARGOUGES,1
1785,"SASSENAGE, MALADIERE",45.20773,5.68048,,GENMALADIER,0
1789,"SASSENAGE, CHATEAU",45.21229,5.66176,,GENCHATSASS,1
1790,"SASSENAGE, CHATEAU",45.21224,5.66167,,GENCHATSASS,1
1794,"GRENOBLE, GRAND'PLACE",45.15922,5.73219,,GENGRDPLACE,1
1836,"VEUREY-VOROIZE, MAIRIE",45.27311,5.61282,,GENVEUREYMA,1
1839,"CLAIX, PONT ROUGE",45.1186,5.69331,,GENPTROUGE,1
1840,"CLAIX, PONT ROUGE",45.11858,5.69319,,GENPTROUGE,1
1841,"CLAIX, PONT ROUGE",45.11832,5.69254,,GENPTROUGE,1
1842,"LE PONT-DE-CLAIX, PONT-DE-CLAIX MAIRIE",45.12295,5.6978,,GENPTCLXMAI,1
1843,"LE PONT-DE-CLAIX, PONT-DE-CLAIX MAIRIE",45.12288,5.6977,,GENPTCLXMAI,1
1850,"SAINT-MARTIN-D'HERES, ETIENNE GRAPPE",45.17222,5.75773,,GENETIEGRAP,1
1851,"SAINT-MARTIN-D'HERES, ETIENNE GRAPPE",45.17211,5.75752,,GENETIEGRAP,1
1852,"SAINT-MARTIN-D'HERES, ROCHEPLANE",45.1783,5.76236,,GENROCHEPLA,1
1853,"SAINT-MARTIN-D'HERES, ROCHEPLANE",45.17826,5.76231,,GENROCHEPLA,1
1854,"GIERES, EPICEA",45.1946,5.77597,,GENEPICEA,1
1855,"GIERES, EPICEA",45.19584,5.77467,,GENEPICEA,1
1859,"SASSENAGE, VIEUX DONJON",45.21137,5.64968,,GENVIEUXDON,0
1860,"SASSENAGE, VIEUX DONJON",45.21138,5.64977,,GENVIEUXDON,0
1861,"SEYSSINS, ANCIENNE GARE",45.15978,5.68178,,GENANCIGARE,0
1862,"SEYSSINS, L'AGNEAU",45.16196,5.68278,,GENLAGNEAU,1
1863,"SAINT-MARTIN-D'HERES, PORTE DU GRESIVAUDAN",45.18253,5.77665,,GENPORTGRES,1
1864,"SAINT-MARTIN-D'HERES, PORTE DU GRESIVAUDAN",45.18232,5.77697,,GENPORTGRES,1
1871,"CLAIX, MAIRIE",45.12026,5.67247,,GENCLAIXMAI,1
1872,"CLAIX, MAIRIE",45.12026,5.67328,,GENCLAIXMAI,1
1875,"CLAIX, CHARRIERES",45.11599,5.68888,,GENCHARRIER,0
1876,"CLAIX, CHARRIERES",45.11599,5.68896,,GENCHARRIER,0
1877,"CLAIX, SAINT-MICHEL",45.11203,5.68452,,GENSAINTMIC,0
1878,"CLAIX, SAINT-MICHEL",45.1122,5.68471,,GENSAINTMIC,0
1879,"CLAIX, LES BAUCHES",45.11083,5.67865,,GENBAUCHES,0
1880,"VARCES-ALLIERES-ET-RISSET, LES BAUCHES",45.11052,5.67808,,GENBAUCHES,0
1881,"CLAIX, BEL HORIZON",45.10866,5.672,,GENBELHORIZ,0
1882,"CLAIX, BEL HORIZON",45.1088,5.67191,,GENBELHORIZ,0
1883,"CLAIX, LA BATIE",45.11184,5.67193,,GENLABATIE,0
1884,"CLAIX, LA BATIE",45.11192,5.67188,,GENLABATIE,0
1885,"CLAIX, LA CHENAIE",45.11419,5.67268,,GENCHENAIE,0
1886,"CLAIX, LA CHENAIE",45.11418,5.67262,,GENCHENAIE,0
1887,"CLAIX, GRANDS CHAMPS",45.11683,5.67345,,GENGRANCHAM,0
1888,"CLAIX, GRANDS CHAMPS",45.11699,5.6734,,GENGRANCHAM,0
1889,"CLAIX, MAIRIE",45.11972,5.67257,,GENCLAIXMAI,0
1890,"CLAIX, MALHIVERT",45.13254,5.66688,,GENMALHIVER,0
1891,"CLAIX, MALHIVERT",45.13207,5.66662,,GENMALHIVER,0
1892,"CLAIX, CHEMIN DE L'ABBE",45.13521,5.66842,,GENCHEABBE,0
1893,"CLAIX, CHEMIN DE L'ABBE",45.13524,5.66835,,GENCHEABBE,0
1894,"CLAIX, COSSEY",45.13895,5.67006,,GENCOSSEY,0
1895,"CLAIX, COSSEY",45.13886,5.67017,,GENCOSSEY,0
1899,"SEYSSINS, PRE NOUVEL",45.15117,5.67992,,GENPRENOUVE,1
1900,"SEYSSINS, PRE NOUVEL",45.15122,5.6798,,GENPRENOUVE,1
1905,"VARCES-ALLIERES-ET-RISSET, LA POMMERAIE",45.08761,5.67221,,GENPOMMERAI,0
1906,"VARCES-ALLIERES-ET-RISSET, LA POMMERAIE",45.08765,5.67206,,GENPOMMERAI,0
1907,"VARCES-ALLIERES-ET-RISSET, LES PLATANES",45.08961,5.67561,,GENPLATANES,0
1908,"VARCES-ALLIERES-ET-RISSET, LES TISSERANDS",45.09196,5.67473,,GENTISSERAN,0
1909,"VARCES-ALLIERES-ET-RISSET, CITE SCOLAIRE",45.09518,5.67434,,GENCITESCOL,1
1910,"VARCES-ALLIERES-ET-RISSET, LA GIRAUDIERE",45.09485,5.68009,,GENGIRAUDIE,0
1911,"VARCES-ALLIERES-ET-RISSET, LA GIRAUDIERE",45.09503,5.67982,,GENGIRAUDIE,0
1912,"VARCES-ALLIERES-ET-RISSET, CITE SCOLAIRE",45.09496,5.6744,,GENCITESCOL,1
1913,"VARCES-ALLIERES-ET-RISSET, LES TISSERANDS",45.09203,5.67463,,GENTISSERAN,0
1914,"VARCES-ALLIERES-ET-RISSET, LES PLATANES",45.0893,5.67546,,GENPLATANES,0
1915,"CLAIX, MAIRIE",45.12058,5.67351,,GENCLAIXMAI,1
1917,"CLAIX, LES FAYARDS",45.12201,5.67562,,GENFAYARDS,0
1918,"CLAIX, LES FAYARDS",45.1221,5.67561,,GENFAYARDS,0
1921,"CLAIX, LES TAILLIS",45.11315,5.66589,,GENTAILLIS,0
1922,"CLAIX, LES TAILLIS",45.11316,5.66577,,GENTAILLIS,0
1923,"CLAIX, FOND RATEL",45.12208,5.68921,,GENFONDRATE,0
1924,"CLAIX, FOND RATEL",45.12215,5.68935,,GENFONDRATE,0
1925,"CLAIX, LES EGLANTIERS",45.11803,5.67303,,GENEGLANTIE,0
1926,"CLAIX, LES EGLANTIERS",45.11816,5.67297,,GENEGLANTIE,0
1927,"VARCES-ALLIERES-ET-RISSET, RISSET",45.10697,5.6729,,GENRISSET,0
1928,"VARCES-ALLIERES-ET-RISSET, RISSET",45.10724,5.67309,,GENRISSET,0
1929,"VARCES-ALLIERES-ET-RISSET, PAVILLON",45.1084,5.67434,,GENPAVILLON,0
1930,"VARCES-ALLIERES-ET-RISSET, PAVILLON",45.1084,5.67425,,GENPAVILLON,0
1932,"CLAIX, POMPIDOU",45.1204,5.69184,,GENPOMPIDOU,1
1933,"VARCES-ALLIERES-ET-RISSET, ROND-POINT DE L'EUROPE",45.09312,5.68375,,GENRONDEURO,1
1934,"VARCES-ALLIERES-ET-RISSET, ROND-POINT DE L'EUROPE",45.09303,5.68364,,GENRONDEURO,1
1935,"VARCES-ALLIERES-ET-RISSET, L'ORIEL",45.08993,5.68358,,GENORIEL,1
1936,"VARCES-ALLIERES-ET-RISSET, L'ORIEL",45.089,5.68363,,GENORIEL,1
1937,"EYBENS, LES JAVAUX",45.14956,5.74934,,GENJAVAUX,0
1938,"EYBENS, LES JAVAUX",45.1498,5.74983,,GENJAVAUX,0
1939,"CLAIX, PONT ROUGE",45.1186,5.69289,,GENPTROUGE,1
1940,"VARCES-ALLIERES-ET-RISSET, SAINT-ANGE",45.09759,5.68395,,GENSTEANGE,1
1941,"VARCES-ALLIERES-ET-RISSET, SAINT-ANGE",45.09683,5.68367,,GENSTEANGE,1
1942,"VARCES-ALLIERES-ET-RISSET, LE ROCHEFORT",45.10226,5.68584,,GENROCHEFOR,1
1943,"VARCES-ALLIERES-ET-RISSET, LE ROCHEFORT",45.10164,5.68534,,GENROCHEFOR,1
1944,"VARCES-ALLIERES-ET-RISSET, PRE DE L'ORME",45.10893,5.68813,,GENPREORME,0
1945,"VARCES-ALLIERES-ET-RISSET, PRE DE L'ORME",45.11039,5.68855,,GENPREORME,0
1950,"SEYSSINS, LE CELLIER",45.16146,5.67351,,GENLECELLIE,0
1951,"SEYSSINS, LE CELLIER",45.16149,5.67354,,GENLECELLIE,0
1952,"SEYSSINS, LES COTES",45.15562,5.67149,,GENLESCOTES,0
1953,"SEYSSINS, LES COTES",45.15606,5.6713,,GENLESCOTES,0
1954,"SEYSSINS, LE PARLEMENT",45.15863,5.67454,,GENLEPARL,1
1955,"SEYSSINS, LE PARLEMENT",45.15864,5.67447,,GENLEPARL,1
1956,"SEYSSINS, LE PRIOU",45.15698,5.6788,,GENLEPRIOU,0
1957,"SEYSSINS, PLACE DU VILLAGE",45.15583,5.68083,,GENPLACEVIL,1
1961,"VARCES-ALLIERES-ET-RISSET, REPUBLIQUE",45.08635,5.68299,,GENVARCESRE,1
1962,"VIF, LE MASSEGU",45.0521,5.67521,,GENMASSEGU,1
1963,"VIF, LE MASSEGU",45.05195,5.67464,,GENMASSEGU,1
1969,"GRENOBLE, VERDUN - PREFECTURE",45.18841,5.73083,,GENVERDUN,1
1970,"GRENOBLE, VERDUN - PREFECTURE",45.18839,5.73105,,GENVERDUN,1
1977,"SEYSSINS, PLACE DU VILLAGE",45.1564,5.6814,,GENPLACEVIL,1
1978,"SEYSSINS, PLACE DU VILLAGE",45.15628,5.68128,,GENPLACEVIL,1
1986,"GRENOBLE, CASERNE DE BONNE",45.18506,5.72533,,GENCASBONNE,1
1987,"GRENOBLE, CASERNE DE BONNE",45.18509,5.72542,,GENCASBONNE,1
1988,"SAINT-EGREVE, SAN MARINO BARRAGE",45.23675,5.65974,,GENSAMMARIN,0
1990,"GRENOBLE, CHAVANT",45.18551,5.7312,,GENCHAVANT,1
1991,"GRENOBLE, CHAVANT",45.18534,5.73149,,GENCHAVANT,1
1994,"MEYLAN, AIGUINARDS-HEXAGONE",45.20508,5.76438,,GENAIGUIHEX,1
1995,"MEYLAN, AIGUINARDS-HEXAGONE",45.20512,5.76472,,GENAIGUIHEX,1
2004,"GRENOBLE, ARLEQUIN",45.16359,5.73057,,GENARLEQUIN,1
2005,"GRENOBLE, ARLEQUIN",45.16359,5.73048,,GENARLEQUIN,1
2006,"GRENOBLE, LA BRUYERE",45.16632,5.73124,,GENBRUYERE,1
2007,"GRENOBLE, LA BRUYERE",45.16635,5.73118,,GENBRUYERE,1
2008,"GRENOBLE, MALHERBE",45.16946,5.73227,,GENMALHERBE,1
2009,"GRENOBLE, MALHERBE",45.16937,5.73217,,GENMALHERBE,1
2010,"GRENOBLE, MC2: MAISON DE LA CULTURE",45.17347,5.73206,,GENMAICULTU,1
2011,"GRENOBLE, MC2: MAISON DE LA CULTURE",45.17346,5.73196,,GENMAICULTU,1
2012,"GRENOBLE, MOUNIER",45.17899,5.73186,,GENMOUNIER,1
2013,"GRENOBLE, MOUNIER",45.179,5.73179,,GENMOUNIER,1
2014,"GRENOBLE, ALBERT 1ER DE BELGIQUE",45.18177,5.73173,,GENALB1BELG,1
2015,"GRENOBLE, ALBERT 1ER DE BELGIQUE",45.18168,5.73167,,GENALB1BELG,1
2018,"GRENOBLE, VERDUN - PREFECTURE",45.18832,5.73152,,GENVERDUN,1
2019,"GRENOBLE, VERDUN - PREFECTURE",45.1883,5.73144,,GENVERDUN,1
2020,"GRENOBLE, HUBERT DUBEDOUT - MAISON DU TOURISME",45.19023,5.72822,,GENDUBEDOUT,1
2021,"GRENOBLE, HUBERT DUBEDOUT - MAISON DU TOURISME",45.1902,5.72822,,GENDUBEDOUT,1
2026,"GRENOBLE, ALSACE-LORRAINE",45.18951,5.71999,,GENALSACELO,1
2027,"GRENOBLE, ALSACE-LORRAINE",45.18946,5.71997,,GENALSACELO,1
2030,"GRENOBLE, SAINT-BRUNO",45.18838,5.71343,,GENSTBRUNOT,1
2031,"GRENOBLE, SAINT-BRUNO",45.18834,5.71342,,GENSTBRUNOT,1
2032,"GRENOBLE, BERRIAT-LE MAGASIN",45.18873,5.70667,,GENBERRIAT,1
2033,"GRENOBLE, BERRIAT-LE MAGASIN",45.18878,5.70647,,GENBERRIAT,1
2034,"FONTAINE, LES FONTAINADES - LE VOG",45.18914,5.69845,,GENFONTAINA,1
2035,"FONTAINE, LES FONTAINADES - LE VOG",45.18909,5.69844,,GENFONTAINA,1
2036,"FONTAINE, LOUIS MAISONNAT",45.18923,5.69401,,GENMAISONNA,1
2037,"FONTAINE, LOUIS MAISONNAT",45.18921,5.69401,,GENMAISONNA,1
2038,"FONTAINE, HOTEL DE VILLE - LA SOURCE",45.19138,5.68729,,GENFONTAHDV,1
2039,"FONTAINE, HOTEL DE VILLE - LA SOURCE",45.19134,5.68727,,GENFONTAHDV,1
2040,"FONTAINE, CHARLES MICHELS",45.1939,5.68011,,GENCHARLMIC,1
2041,"FONTAINE, CHARLES MICHELS",45.19386,5.68009,,GENCHARLMIC,1
2043,"GRENOBLE, SAINTE-CLAIRE - LES HALLES",45.19147,5.73063,,GENSTECLAIR,1
2044,"GRENOBLE, SAINTE-CLAIRE - LES HALLES",45.19146,5.73068,,GENSTECLAIR,1
2045,"GRENOBLE, NOTRE-DAME - MUSEE",45.19361,5.73207,,GENNOTREDAM,1
2046,"GRENOBLE, NOTRE-DAME - MUSEE",45.19358,5.73214,,GENNOTREDAM,1
2047,"GRENOBLE, ILE VERTE",45.19729,5.7367,,GENILEVERTE,1
2048,"GRENOBLE, ILE VERTE",45.19725,5.73676,,GENILEVERTE,1
2049,"GRENOBLE, HOPITAL",45.20065,5.74116,,GENTRONCHOP,1
2050,"GRENOBLE, HOPITAL",45.20061,5.74123,,GENTRONCHOP,1
2051,"LA TRONCHE, MICHALLON",45.20035,5.74531,,GENMICHALLO,1
2052,"LA TRONCHE, MICHALLON",45.20028,5.74533,,GENMICHALLO,1
2053,"LA TRONCHE, GRAND SABLON",45.19908,5.75002,,GENGRDSABLO,1
2054,"LA TRONCHE, GRAND SABLON",45.19903,5.75,,GENGRDSABLO,1
2055,"SAINT-MARTIN-D'HERES, LES TAILLEES - UNIVERSITES",45.19223,5.75786,,GENTAILLEES,1
2056,"SAINT-MARTIN-D'HERES, LES TAILLEES - UNIVERSITES",45.19233,5.75785,,GENTAILLEES,1
2057,"SAINT-MARTIN-D'HERES, GABRIEL FAURE",45.19234,5.7643,,GENGABFAURE,1
2058,"SAINT-MARTIN-D'HERES, GABRIEL FAURE",45.19228,5.76431,,GENGABFAURE,1
2059,"GIERES, BIBLIOTHEQUES UNIVERSITAIRES",45.19246,5.77098,,GENBIBLIUNI,1
2060,"GRENOBLE, POLESUD - ALPEXPO",45.15729,5.73295,,GENPOLESUD,1
2061,"GRENOBLE, POLESUD - ALPEXPO",45.15735,5.73296,,GENPOLESUD,1
2062,"ECHIROLLES, LES GRANGES",45.15691,5.7278,,GENGRANGES,1
2063,"ECHIROLLES, LES GRANGES",45.15696,5.72781,,GENGRANGES,1
2064,"ECHIROLLES, SURIEUX",45.15839,5.72187,,GENSURIEUX,1
2065,"ECHIROLLES, SURIEUX",45.15846,5.72192,,GENSURIEUX,1
2066,"ECHIROLLES, ESSARTS - LA BUTTE",45.15588,5.71918,,GENESSARTS,1
2067,"ECHIROLLES, ESSARTS - LA BUTTE",45.15588,5.71909,,GENESSARTS,1
2068,"ECHIROLLES, LA RAMPE - CENTRE-VILLE",45.14879,5.71796,,GENRAMPE,1
2069,"ECHIROLLES, LA RAMPE - CENTRE-VILLE",45.14879,5.71787,,GENRAMPE,1
2070,"ECHIROLLES, MARIE CURIE",45.14571,5.71718,,GENMARIECUR,1
2071,"ECHIROLLES, MARIE CURIE",45.14573,5.71708,,GENMARIECUR,1
2072,"ECHIROLLES, AUGUSTE DELAUNE",45.1425,5.71536,,GENADELAUNE,1
2073,"ECHIROLLES, AUGUSTE DELAUNE",45.1425,5.71542,,GENADELAUNE,1
2074,"ECHIROLLES, DENIS PAPIN",45.13831,5.71313,,GENDENPAPIN,1
2075,"ECHIROLLES, DENIS PAPIN",45.13832,5.71307,,GENDENPAPIN,1
2076,"GRENOBLE, PALAIS DE JUSTICE",45.19123,5.71177,,GENPALJUSTI,1
2077,"GRENOBLE, PALAIS DE JUSTICE",45.19119,5.71169,,GENPALJUSTI,1
2092,"GRENOBLE, SAINT-ROCH",45.19158,5.73983,,GENSTROCH,1
2093,"GRENOBLE, SAINT-ROCH",45.1915,5.73958,,GENSTROCH,1
2104,"VARCES-ALLIERES-ET-RISSET, REPUBLIQUE",45.08684,5.68316,,GENVARCESRE,1
2109,"FONTAINE, LA POYA",45.19709,5.67222,,GENLAPOYA,1
2110,"GRENOBLE, VEYRET",45.19483,5.7248,,GENVEYRET,0
2117,"CORENC, MAIRIE-CONDAMINE",45.21118,5.75093,,GENMAIRIECO,0
2118,"CORENC, CHARLES PAJON",45.2132,5.75244,,GENPAJON,0
2119,"CORENC, MONUMENT",45.21643,5.75383,,GENMONUMENT,0
2120,"CORENC, LA CORNE D'OR",45.21813,5.76051,,GENCORNEDOR,0
2121,"CORENC, VILLAGE",45.21993,5.76279,,GENCORENCVI,0
2122,"CORENC, PROVIDENCE",45.22102,5.76451,,GENPROVIDEN,0
2123,"CORENC, ROCHASSON",45.22379,5.76792,,GENMOLLARD,0
2124,"CORENC, LA GARENNE",45.22739,5.76587,,GENGARENNE,0
2126,"LA TRONCHE, SAINT-GERMAIN",45.21015,5.74409,,GENSTGERMAI,0
2130,"MEYLAN, LIONEL TERRAY",45.20967,5.76625,,GENTERRAY,0
2132,"MEYLAN, CHAMPLARS",45.22023,5.7801,,GENCHAMPLAR,0
2133,"MEYLAN, CROIX DES RAMEAUX",45.22355,5.78179,,GENCXRAMEAU,0
2135,"MEYLAN, GUE DU BOUTET",45.22871,5.7848,,GENGUEBOUTE,0
2136,"MEYLAN, PRE CATLAN",45.23019,5.78762,,GENPRECATLA,0
2137,"MEYLAN, SAINT-VICTOR",45.22855,5.78912,,GENSTVICTOR,0
2138,"MEYLAN, LA TREILLE",45.22628,5.79116,,GENTREILLE,0
2139,"CLAIX, MEMORIAL",45.12265,5.69102,,GENDRAC,0
2140,"CLAIX, LA BALMETTE",45.12521,5.68811,,GENBALMETTE,0
2141,"CLAIX, LE COTEAU",45.12669,5.6867,,GENCOTEAU,0
2142,"CLAIX, LES CIMENTIERS",45.13047,5.68357,,GENCIMENTIE,0
2143,"CLAIX, MOUCHEROTTE",45.12579,5.68096,,GENMOUCHERO,0
2144,"CLAIX, LES PEROUSES",45.12457,5.67937,,GENPEROUSES,0
2146,"CLAIX, FURONNIERES",45.12597,5.6712,,GENFURONNIE,0
2147,"CLAIX, POSTE",45.12148,5.67214,,GENPOSTE,1
2148,"CLAIX, BOULODROME-ECOLE",45.11962,5.66899,,GENBOULODRO,0
2149,"CLAIX, LES PAMPRES",45.11536,5.66589,,GENPAMPRES,0
2150,"CLAIX, BELLEVUE",45.11196,5.66548,,GENBELLEVUE,0
2151,"CLAIX, LA CHANTERAIE",45.11012,5.66548,,GENCHANTERA,0
2153,"SASSENAGE, BLANC FONTAINE",45.21087,5.65628,,GENBLANCFON,0
2154,"SASSENAGE, LES CHENES",45.21815,5.6535,,GENCHENES,0
2155,"SASSENAGE, LES PARCS",45.21654,5.65189,,GENPARCS,0
2156,"SASSENAGE, RIVOIRE DE LA DAME",45.21497,5.6516,,GENRIVOIRE,0
2157,"SASSENAGE, MOLLARD - PICHON",45.21354,5.65237,,GENMOLLARDP,0
2158,"SASSENAGE, BEAUREVOIR",45.2101,5.64855,,GENBEAUREVO,0
2159,"SASSENAGE, LES COTES",45.21006,5.64749,,GENCOTESASS,1
2160,"CORENC, MAIRIE-CONDAMINE",45.21101,5.75038,,GENMAIRIECO,0
2161,"CORENC, CHARLES PAJON",45.21426,5.75315,,GENPAJON,0
2162,"CORENC, MONUMENT",45.21635,5.75384,,GENMONUMENT,0
2163,"CORENC, LA CORNE D'OR",45.21809,5.76046,,GENCORNEDOR,0
2164,"CORENC, VILLAGE",45.21983,5.76229,,GENCORENCVI,0
2165,"CORENC, PROVIDENCE",45.22111,5.76456,,GENPROVIDEN,0
2166,"CORENC, ROCHASSON",45.22364,5.7678,,GENMOLLARD,0
2169,"LA TRONCHE, SAINT-GERMAIN",45.21004,5.74396,,GENSTGERMAI,0
2172,"MEYLAN, LIONEL TERRAY",45.21035,5.76713,,GENTERRAY,0
2174,"MEYLAN, CHAMPLARS",45.22023,5.77982,,GENCHAMPLAR,0
2175,"MEYLAN, CROIX DES RAMEAUX",45.22374,5.78177,,GENCXRAMEAU,0
2177,"MEYLAN, GUE DU BOUTET",45.2287,5.78464,,GENGUEBOUTE,0
2178,"MEYLAN, PRE CATLAN",45.23002,5.78733,,GENPRECATLA,0
2179,"MEYLAN, SAINT-VICTOR",45.2286,5.78928,,GENSTVICTOR,0
2180,"MEYLAN, LA TREILLE",45.22639,5.79109,,GENTREILLE,0
2181,"CLAIX, MEMORIAL",45.12257,5.69108,,GENDRAC,0
2182,"CLAIX, LA BALMETTE",45.12521,5.68805,,GENBALMETTE,0
2183,"CLAIX, LE COTEAU",45.12662,5.68673,,GENCOTEAU,0
2184,"CLAIX, LES CIMENTIERS",45.13045,5.68362,,GENCIMENTIE,0
2185,"CLAIX, MOUCHEROTTE",45.12564,5.68089,,GENMOUCHERO,0
2186,"CLAIX, LES PEROUSES",45.12448,5.67946,,GENPEROUSES,0
2188,"CLAIX, FURONNIERES",45.12596,5.67132,,GENFURONNIE,0
2189,"CLAIX, POSTE",45.1211,5.67214,,GENPOSTE,0
2190,"CLAIX, BOULODROME-ECOLE",45.11961,5.66935,,GENBOULODRO,0
2191,"CLAIX, LES PAMPRES",45.11525,5.66603,,GENPAMPRES,0
2192,"CLAIX, BELLEVUE",45.11178,5.66558,,GENBELLEVUE,0
2193,"CLAIX, LA CHANTERAIE",45.11022,5.6655,,GENCHANTERA,0
2194,"SASSENAGE, BLANC FONTAINE",45.21064,5.65625,,GENBLANCFON,0
2195,"SASSENAGE, LES CHENES",45.21809,5.65343,,GENCHENES,0
2196,"SASSENAGE, LES PARCS",45.21658,5.65201,,GENPARCS,0
2197,"SASSENAGE, RIVOIRE DE LA DAME",45.21493,5.65169,,GENRIVOIRE,0
2198,"SASSENAGE, MOLLARD - PICHON",45.21361,5.65249,,GENMOLLARDP,0
2199,"SASSENAGE, BEAUREVOIR",45.21009,5.64861,,GENBEAUREVO,0
2200,"CORENC, MAIRIE",45.20974,5.75272,,GENCORENCMA,0
2201,"CORENC, MAIRIE",45.20972,5.75263,,GENCORENCMA,0
2207,"ECHIROLLES, GARE",45.15303,5.7184,,GENECHIGARE,1
2208,"ECHIROLLES, GARE",45.15302,5.71848,,GENECHIGARE,1
2212,"GRENOBLE, GRAND'PLACE",45.1591,5.73192,,GENGRDPLACE,1
2213,"GRENOBLE, VICTOR HUGO",45.18978,5.72495,,GENVICTHUGO,1
2214,"GRENOBLE, GARES",45.19043,5.71493,,GENGARES,1
2215,"FONTAINE, LA POYA",45.19712,5.67226,,GENLAPOYA,1
2216,"GRENOBLE, GARES",45.19008,5.71498,,GENGARES,1
2217,"GRENOBLE, VICTOR HUGO",45.18973,5.72498,,GENVICTHUGO,1
2218,"GRENOBLE, GRAND'PLACE",45.15901,5.73258,,GENGRDPLACE,1
2219,"GRENOBLE, CITE INTERNATIONALE",45.19508,5.71127,,GENCITEINTE,1
2220,"GRENOBLE, CITE INTERNATIONALE",45.19508,5.7112,,GENCITEINTE,1
2221,"SEYSSINS, LE PRISME",45.16639,5.69043,,GENPRISME,1
2222,"SEYSSINS, LE PRISME",45.16641,5.69047,,GENPRISME,1
2223,"SEYSSINS, MAS DES ILES",45.16727,5.69416,,GENMASDESIL,1
2224,"SEYSSINS, MAS DES ILES",45.16727,5.69424,,GENMASDESIL,1
2225,"SEYSSINET-PARISET, GRAND PRE",45.17178,5.69416,,GENGRANDPRE,1
2226,"SEYSSINET-PARISET, GRAND PRE",45.17178,5.69424,,GENGRANDPRE,1
2227,"SEYSSINET-PARISET, FAUCONNIERE",45.17651,5.69422,,GENFAUCONNI,1
2228,"SEYSSINET-PARISET, FAUCONNIERE",45.17651,5.69427,,GENFAUCONNI,1
2229,"SEYSSINET-PARISET, SEYSSINET-PARISET HOTEL DE VILLE",45.18025,5.69639,,GENSEYHDV,1
2230,"SEYSSINET-PARISET, SEYSSINET-PARISET HOTEL DE VILLE",45.18021,5.69639,,GENSEYHDV,1
2231,"GRENOBLE, VALLIER - CATANE",45.18009,5.70621,,GENVALLCATA,1
2232,"GRENOBLE, VALLIER - CATANE",45.18007,5.70622,,GENVALLCATA,1
2233,"GRENOBLE, VALLIER - DOCTEUR CALMETTE",45.18016,5.71077,,GENDRCALME,1
2234,"GRENOBLE, VALLIER - DOCTEUR CALMETTE",45.18013,5.71077,,GENDRCALME,1
2235,"GRENOBLE, VALLIER - LIBERATION",45.18033,5.71565,,GENVALLIBE,1
2236,"GRENOBLE, VALLIER - LIBERATION",45.1803,5.71566,,GENVALLIBE,1
2237,"GRENOBLE, FOCH - FERRIE",45.18083,5.72255,,GENFOCHFERI,1
2238,"GRENOBLE, FOCH - FERRIE",45.1808,5.72256,,GENFOCHFERI,1
2239,"GRENOBLE, GUSTAVE RIVET",45.18236,5.72811,,GENGUSTRIVE,1
2240,"GRENOBLE, GUSTAVE RIVET",45.18233,5.72813,,GENGUSTRIVE,1
2241,"GRENOBLE, HOTEL DE VILLE",45.18749,5.73777,,GENGREHOTEL,1
2242,"GRENOBLE, HOTEL DE VILLE",45.18746,5.73779,,GENGREHOTEL,1
2243,"GRENOBLE, FLANDRIN - VALMY",45.18721,5.74474,,GENVALMY,1
2244,"GRENOBLE, FLANDRIN - VALMY",45.18719,5.7448,,GENVALMY,1
2245,"SAINT-MARTIN-D'HERES, NEYRPIC - BELLEDONNE",45.18685,5.75648,,GENNEYRBELL,1
2246,"SAINT-MARTIN-D'HERES, NEYRPIC - BELLEDONNE",45.18676,5.75654,,GENNEYRBELL,1
2247,"SAINT-MARTIN-D'HERES, PERI - BROSSOLETTE",45.18773,5.75142,,GENPERIBROS,1
2248,"SAINT-MARTIN-D'HERES, PERI - BROSSOLETTE",45.18771,5.75142,,GENPERIBROS,1
2249,"SAINT-MARTIN-D'HERES, HECTOR BERLIOZ - UNIVERSITES",45.19138,5.75862,,GENHBERLUNI,1
2250,"SAINT-MARTIN-D'HERES, HECTOR BERLIOZ - UNIVERSITES",45.19137,5.75866,,GENHBERLUNI,1
2254,"GRENOBLE, CHAVANT",45.18466,5.73178,,GENCHAVANT,1
2255,"GRENOBLE, CHAVANT",45.18466,5.7317,,GENCHAVANT,1
2257,"ECHIROLLES, HOPITAL SUD",45.14695,5.73265,,GENHOPITSUD,1
2258,"BRESSON, AVENUE DE LA REPUBLIQUE",45.14277,5.73589,,GENAVREPUB,0
2259,"BRESSON, AVENUE DE LA REPUBLIQUE",45.14279,5.73589,,GENAVREPUB,0
2260,"ECHIROLLES, COMMANDERIE",45.14453,5.73319,,GENCOMMANDE,0
3059,"GIERES, PLAINE DES SPORTS",45.18805,5.78421,,GENPLAINEDS,1
3062,"GIERES, GIERES GARE - UNIVERSITES",45.18528,5.78458,,GENGIERGARE,1
3063,"GIERES, GIERES GARE - UNIVERSITES",45.18533,5.78454,,GENGIERGARE,1
3064,"GIERES, MAYENCIN - CHAMP ROMAN",45.18491,5.77895,,GENMAYENCIN,1
3065,"GIERES, MAYENCIN - CHAMP ROMAN",45.18494,5.77899,,GENMAYENCIN,1
3066,"SAINT-MARTIN-D'HERES, CONDILLAC - UNIVERSITES",45.18915,5.77445,,GENCONDIUNI,1
3067,"SAINT-MARTIN-D'HERES, CONDILLAC - UNIVERSITES",45.18919,5.77448,,GENCONDIUNI,1
3068,"GIERES, BIBLIOTHEQUES UNIVERSITAIRES",45.19246,5.7709,,GENBIBLIUNI,1
3092,"SAINT-MARTIN-D'HERES, MAISON COMMUNALE",45.1842,5.754,,GENMAICOM,1
3093,"SAINT-MARTIN-D'HERES, MAISON COMMUNALE",45.1842,5.75413,,GENMAICOM,1
3094,"SAINT-MARTIN-D'HERES, EDOUARD VAILLANT",45.17952,5.75518,,GENEDVAILLA,1
3095,"SAINT-MARTIN-D'HERES, EDOUARD VAILLANT",45.17953,5.75523,,GENEDVAILLA,1
3096,"SAINT-MARTIN-D'HERES, PARC JO BLANCHON",45.17585,5.75684,,GENBLANCHON,1
3097,"SAINT-MARTIN-D'HERES, PARC JO BLANCHON",45.17585,5.75675,,GENBLANCHON,1
3100,"SAINT-MARTIN-D'HERES, LES TAILLEES - UNIVERSITES",45.19215,5.75784,,GENTAILLEES,1
3102,"SAINT-MARTIN-D'HERES, CONDILLAC - UNIVERSITES",45.18911,5.77441,,GENCONDIUNI,1
3107,"SAINT-MARTIN-D'HERES, ETIENNE GRAPPE",45.17213,5.75769,,GENETIEGRAP,1
3201,"GRENOBLE, LOUISE MICHEL",45.16975,5.71292,,GENLMICHEL,1
3202,"GRENOBLE, LOUISE MICHEL",45.16976,5.71287,,GENLMICHEL,1
3203,"GRENOBLE, ALLIES",45.17395,5.71437,,GENALLIES,1
3204,"GRENOBLE, ALLIES",45.17399,5.71427,,GENALLIES,1
3205,"GRENOBLE, VALLIER - LIBERATION",45.17974,5.71629,,GENVALLIBE,1
3206,"GRENOBLE, VALLIER - LIBERATION",45.17975,5.71622,,GENVALLIBE,1
3207,"GRENOBLE, CONDORCET",45.18553,5.71824,,GENCONDORCE,1
3208,"GRENOBLE, CONDORCET",45.18553,5.71823,,GENCONDORCE,1
3209,"GRENOBLE, ALSACE-LORRAINE",45.18902,5.7193,,GENALSACELO,1
3210,"GRENOBLE, ALSACE-LORRAINE",45.18911,5.7193,,GENALSACELO,1
3211,"GRENOBLE, ESPLANADE CENTRE",45.19568,5.71686,,GENESPLANAD,1
3212,"GRENOBLE, ESPLANADE CENTRE",45.19566,5.71679,,GENESPLANAD,1
3213,"GRENOBLE, CASAMAURES - VILLAGE",45.19953,5.71688,,GENCASAVILL,1
3214,"GRENOBLE, CASAMAURES - VILLAGE",45.19954,5.71678,,GENCASAVILL,1
3215,"SAINT-MARTIN-LE-VINOUX, HOTEL DE VILLE",45.20795,5.70663,,GENPIQUEPIE,1
3216,"SAINT-MARTIN-LE-VINOUX, HOTEL DE VILLE",45.20792,5.70659,,GENPIQUEPIE,1
3217,"SAINT-MARTIN-LE-VINOUX, HORLOGE",45.21364,5.69877,,GENHORLOGE,1
3218,"SAINT-MARTIN-LE-VINOUX, HORLOGE",45.21363,5.69885,,GENHORLOGE,1
3219,"SAINT-MARTIN-LE-VINOUX, NERON",45.21798,5.69322,,GENNERON,1
3220,"SAINT-MARTIN-LE-VINOUX, NERON",45.21782,5.69334,,GENNERON,1
3221,"SAINT-EGREVE, FIANCEY - PREDIEU",45.22316,5.68867,,GENPREDIEU,1
3222,"SAINT-EGREVE, FIANCEY - PREDIEU",45.22314,5.68863,,GENPREDIEU,1
3223,"SAINT-EGREVE, MURET",45.22594,5.68623,,GENCHARMETS,1
3224,"SAINT-EGREVE, MURET",45.22595,5.68613,,GENCHARMETS,1
3225,"SAINT-EGREVE, PONT DE VENCE",45.23023,5.68215,,GENPTVENCE,1
3226,"SAINT-EGREVE, PONT DE VENCE",45.23009,5.6823,,GENPTVENCE,1
3227,"SAINT-EGREVE, LA PINEA - ST ROBERT",45.23571,5.67553,,GENPINEA,1
3228,"SAINT-EGREVE, LA PINEA - ST ROBERT",45.23565,5.67549,,GENPINEA,1
3231,"SAINT-EGREVE, KARBEN",45.24236,5.67093,,GENKARBEN,1
3232,"SAINT-EGREVE, KARBEN",45.24235,5.67093,,GENKARBEN,1
3233,"FONTANIL-CORNILLON, RAFOUR",45.24831,5.66642,,GENBABIERE,1
3234,"FONTANIL-CORNILLON, RAFOUR",45.24864,5.66615,,GENBABIERE,1
3235,"FONTANIL-CORNILLON, PALLUEL",45.25519,5.66132,,GENFONTANIL,1
3236,"FONTANIL-CORNILLON, PALLUEL",45.25507,5.66148,,GENFONTANIL,1
3297,"GIERES, GIERES GARE - UNIVERSITES",45.18491,5.78527,,GENGIERGARE,1
3298,"GIERES, GIERES GARE - UNIVERSITES",45.1849,5.78546,,GENGIERGARE,1
4019,"GRENOBLE, CEA - CAMBRIDGE",45.2012,5.70586,,GENCEACAMB,1
4020,"GRENOBLE, CEA - CAMBRIDGE",45.20121,5.70589,,GENCEACAMB,1
4021,"GRENOBLE, PRESQU'ILE",45.20581,5.69971,,GENPRESQUIL,1
4022,"GRENOBLE, PRESQU'ILE",45.20579,5.69967,,GENPRESQUIL,1
4025,"GRENOBLE, FLANDRIN - VALMY",45.18717,5.74474,,GENVALMY,1
4026,"GRENOBLE, FLANDRIN - VALMY",45.18696,5.74436,,GENVALMY,1
4027,"GRENOBLE, VERDUN - PREFECTURE",45.18829,5.73163,,GENVERDUN,1
4029,"GRENOBLE, MAURICE GIGNOUX",45.19423,5.72518,,GENGIGNOUX,0
4030,"GRENOBLE, MAURICE GIGNOUX",45.19421,5.72525,,GENGIGNOUX,0
4073,"LE GUA, L'ARZELIER",44.997,5.60277,,GENARZELIER,0
4074,"LE GUA, L'ARZELIER",44.99692,5.60258,,GENARZELIER,0
4075,"CHATEAU-BERNARD, COL DE L'ARZELIER",44.99021,5.59483,,GENCOLARZEL,0
4076,"CHATEAU-BERNARD, COL DE L'ARZELIER",44.99023,5.59511,,GENCOLARZEL,0
4077,"GRENOBLE, VICTOR HUGO",45.18811,5.72432,,GENVICTHUGO,1
4079,"SAINT-MARTIN-LE-VINOUX, RESISTANCE",45.20341,5.71433,,GEN16AOUT44,0
4080,"SAINT-MARTIN-LE-VINOUX, RESISTANCE",45.20341,5.71433,,GEN16AOUT44,0
4081,"SAINT-MARTIN-LE-VINOUX, CANET",45.21001,5.70702,,GENCHEMI,0
4082,"SAINT-MARTIN-LE-VINOUX, CANET",45.21003,5.70704,,GENCHEMI,0
4085,"SAINT-EGREVE, COLLEGE BARNAVE",45.23093,5.69194,,GENBARNA,0
4086,"SAINT-EGREVE, COLLEGE BARNAVE",45.23097,5.69175,,GENBARNA,0
4087,"SAINT-EGREVE, CHEMIN VERT",45.23657,5.69245,,GENCHEMVER,0
4088,"SAINT-EGREVE, CHEMIN VERT",45.2366,5.69236,,GENCHEMVER,0
4089,"PROVEYSIEUX, GARCINIERE",45.25161,5.69494,,GENRIGAU,0
4090,"PROVEYSIEUX, GARCINIERE",45.25164,5.69488,,GENRIGAU,0
4091,"PROVEYSIEUX, LE MOLLARD",45.25819,5.69604,,GENEGREMOLL,0
4092,"PROVEYSIEUX, LE MOLLARD",45.25822,5.69591,,GENEGREMOLL,0
4093,"PROVEYSIEUX, VILLAGE",45.26335,5.69981,,GENEGRECOLE,0
4094,"PROVEYSIEUX, VILLAGE",45.26335,5.69973,,GENEGRECOLE,0
4095,"PROVEYSIEUX, PONT DU GUA",45.27608,5.70733,,GENEGREGUA,0
4096,"PROVEYSIEUX, PONT DU GUA",45.27609,5.70727,,GENEGREGUA,0
4097,"PROVEYSIEUX, SAVOYARDIERE",45.27832,5.70838,,GENSAVOY,0
4098,"PROVEYSIEUX, SAVOYARDIERE",45.27833,5.70833,,GENSAVOY,0
4099,"PROVEYSIEUX, POMAREY BAS",45.28045,5.70968,,GENPOMAR,0
4100,"PROVEYSIEUX, POMAREY BAS",45.28045,5.70961,,GENPOMAR,0
4101,"PROVEYSIEUX, POMAREY",45.28296,5.71212,,GENPOMAREY,0
4102,"PROVEYSIEUX, POMAREY",45.28295,5.71217,,GENPOMAREY,0
4103,"PROVEYSIEUX, PLANFAY BAS",45.27755,5.71568,,GENPLANF,0
4104,"PROVEYSIEUX, PLANFAY BAS",45.27756,5.71576,,GENPLANF,0
4105,"PROVEYSIEUX, PLANFAY HAUT",45.27873,5.71792,,GENPLANFAY,0
4106,"PROVEYSIEUX, PLANFAY HAUT",45.27874,5.71787,,GENPLANFAY,0
4107,"FONTANIL-CORNILLON, LE FONTANIL MAIRIE",45.25618,5.66632,,GENFONTANIM,1
4108,"FONTANIL-CORNILLON, LE FONTANIL MAIRIE",45.25618,5.66633,,GENFONTANIM,1
4113,"MONT-SAINT-MARTIN, FOCHAIRE",45.27154,5.67451,,GENFOCHAIRE,0
4114,"MONT-SAINT-MARTIN, FOCHAIRE",45.27158,5.67442,,GENFOCHAIRE,0
4115,"MONT-SAINT-MARTIN, CHEMIN DE NAMIERE",45.27228,5.67848,,GENNAMIERE,0
4116,"MONT-SAINT-MARTIN, CHEMIN DE NAMIERE",45.27232,5.67853,,GENNAMIERE,0
4119,"BRIE-ET-ANGONNES, TAVERNOLLES",45.13612,5.77049,,GENTAVER,0
4120,"BRIE-ET-ANGONNES, TAVERNOLLES",45.13628,5.77037,,GENTAVER,0
4121,"BRIE-ET-ANGONNES, L'ENCLOS",45.13329,5.77473,,GENLENCLOS,0
4122,"BRIE-ET-ANGONNES, L'ENCLOS",45.1333,5.77484,,GENLENCLOS,0
4124,"BRIE-ET-ANGONNES, SOUVEYRON",45.13061,5.77825,,GENSOUVE,0
4125,"BRIE-ET-ANGONNES, LE COIN",45.12795,5.78504,,GENSOUVEVI,0
4126,"BRIE-ET-ANGONNES, LE COIN",45.12799,5.78511,,GENSOUVEVI,0
4127,"BRIE-ET-ANGONNES, LES METRAUX",45.12169,5.78498,,GENMETRA,0
4128,"BRIE-ET-ANGONNES, LES METRAUX",45.12164,5.78505,,GENMETRA,0
4129,"BRIE-ET-ANGONNES, LE REPLAT",45.12096,5.78153,,GENREPLAT,0
4130,"BRIE-ET-ANGONNES, LE REPLAT",45.1209,5.78154,,GENREPLAT,0
4131,"BRIE-ET-ANGONNES, L'OLYMPE",45.11776,5.78282,,GENBRIECOLE,0
4132,"BRIE-ET-ANGONNES, L'OLYMPE",45.11784,5.78285,,GENBRIECOLE,0
4133,"BRIE-ET-ANGONNES, MONT ROLLAND",45.1154,5.78391,,GENBRIE,0
4134,"BRIE-ET-ANGONNES, MONT ROLLAND",45.11528,5.78405,,GENBRIE,0
4135,"BRIE-ET-ANGONNES, EGLISE",45.11071,5.78715,,GENBRIEGLIS,0
4136,"BRIE-ET-ANGONNES, EGLISE",45.1112,5.78653,,GENBRIEGLIS,0
4138,"VIZILLE, MONTCHABOUD CROISEMENT",45.09161,5.77688,,GENMONTCHAB,0
4139,"VIZILLE, CHANTEFEUILLE",45.08058,5.77486,,GENCHANTEFE,0
4140,"VIZILLE, CHANTEFEUILLE",45.08045,5.77482,,GENCHANTEFE,0
4141,"CHAMPAGNIER, PLACE DU LACA",45.11374,5.72862,,GENPLACA,0
4142,"CHAMPAGNIER, PLACE DU LACA",45.11379,5.72863,,GENPLACA,0
4143,"JARRIE, LES THEVENETS",45.11565,5.75101,,GENTHEVE,0
4144,"JARRIE, LES THEVENETS",45.11572,5.75102,,GENTHEVE,0
4145,"JARRIE, LES SIMIANES",45.11605,5.75776,,GENSIMIA,0
4146,"JARRIE, LES SIMIANES",45.11612,5.75778,,GENSIMIA,0
4147,"BRIE-ET-ANGONNES, BEAULIEU",45.13854,5.77361,,GENBEAULIEU,1
4148,"BRIE-ET-ANGONNES, BEAULIEU",45.13855,5.77355,,GENBEAULIEU,1
4149,"BRIE-ET-ANGONNES, LES ANGONNES",45.13988,5.77611,,GENANGONNES,1
4150,"BRIE-ET-ANGONNES, LES ANGONNES",45.13993,5.77617,,GENANGONNES,1
4152,"BRIE-ET-ANGONNES, LE CHOLLET",45.14025,5.78364,,GENCHOLLET,1
4153,"HERBEYS, LE BOURG",45.13887,5.79311,,GENHEBOURG,1
4154,"HERBEYS, LE BOURG",45.13892,5.79316,,GENHEBOURG,1
4157,"CORENC, COL DE VENCE",45.23419,5.75118,,GENCOLVENCE,0
4158,"CORENC, COL DE VENCE",45.23401,5.75107,,GENCOLVENCE,0
4159,"LE SAPPEY-EN-CHARTREUSE, SAINT-EYNARD",45.24924,5.76547,,GENSAINTEYN,0
4160,"LE SAPPEY-EN-CHARTREUSE, SAINT-EYNARD",45.24926,5.76534,,GENSAINTEYN,0
4161,"LE SAPPEY-EN-CHARTREUSE, LE GOUILLAT",45.25468,5.77104,,GENLEGOUILL,0
4162,"LE SAPPEY-EN-CHARTREUSE, LE GOUILLAT",45.25474,5.77111,,GENLEGOUILL,0
4163,"LE SAPPEY-EN-CHARTREUSE, PLACE",45.25954,5.7773,,GENPLACESAP,0
4164,"LE SAPPEY-EN-CHARTREUSE, PLACE",45.25948,5.77706,,GENPLACESAP,0
4165,"LE SAPPEY-EN-CHARTREUSE, CHURUT",45.26479,5.77752,,GENCHURU,0
4166,"LE SAPPEY-EN-CHARTREUSE, CHURUT",45.26474,5.77743,,GENCHURU,0
4167,"LE SAPPEY-EN-CHARTREUSE, LES JONQUILLES",45.26474,5.77424,,GENMOLLARSA,0
4168,"LE SAPPEY-EN-CHARTREUSE, LES JONQUILLES",45.26468,5.7742,,GENMOLLARSA,0
4169,"SARCENAS, LE VILLAGE",45.27347,5.75853,,GENSARCENA,0
4170,"SARCENAS, LE VILLAGE",45.2734,5.75861,,GENSARCENA,0
4171,"SARCENAS, PONT DU CROZ",45.27663,5.75742,,GENSARCROZ,0
4172,"SARCENAS, PONT DU CROZ",45.27669,5.75747,,GENSARCROZ,0
4173,"SARCENAS, COL DE PORTE",45.28975,5.76706,,GENCOLPORTE,0
4174,"SARCENAS, COL DE PORTE",45.28982,5.76704,,GENCOLPORTE,0
4176,"QUAIX-EN-CHARTREUSE, LE BAS DE QUAIX",45.25399,5.70142,,GENBASQUAIX,0
4178,"QUAIX-EN-CHARTREUSE, LE BARBET",45.25801,5.70815,,GENBARBET,0
4179,"QUAIX-EN-CHARTREUSE, BAS DE PETESSET",45.25635,5.71059,,GENBASPET,0
4180,"QUAIX-EN-CHARTREUSE, BAS DE PETESSET",45.25637,5.7104,,GENBASPET,0
4181,"QUAIX-EN-CHARTREUSE, PLACE",45.25325,5.71737,,GENPLACEQUA,0
4182,"QUAIX-EN-CHARTREUSE, PLACE",45.25319,5.71732,,GENPLACEQUA,0
4184,"QUAIX-EN-CHARTREUSE, LE CHATEAU",45.25216,5.72202,,GENCHATEAUQ,0
4186,"QUAIX-EN-CHARTREUSE, CENTRE AERE",45.24753,5.72295,,GENCENTRAER,0
4187,"QUAIX-EN-CHARTREUSE, LE CHARPEN",45.24247,5.72542,,GENCHARPEN,0
4188,"QUAIX-EN-CHARTREUSE, LE CHARPEN",45.24256,5.72548,,GENCHARPEN,0
4190,"QUAIX-EN-CHARTREUSE, ROUDIER",45.24812,5.73164,,GENROUDIER,0
4192,"QUAIX-EN-CHARTREUSE, SOUS LA FRETTE",45.25036,5.73532,,GENSOUSFRET,0
4194,"QUAIX-EN-CHARTREUSE, BAS DE MONT-QUAIX",45.25288,5.74174,,GENBASMONT,0
4196,"QUAIX-EN-CHARTREUSE, MONT-QUAIX",45.25575,5.74284,,GENMONTQUAI,0
4198,"QUAIX-EN-CHARTREUSE, FONTVIEILLE",45.2592,5.7449,,GENFONVIEIL,0
4199,"QUAIX-EN-CHARTREUSE, LA CIME DE MONT-QUAIX",45.25736,5.7461,,GENCIMEMONT,0
4200,"QUAIX-EN-CHARTREUSE, LA CIME DE MONT-QUAIX",45.25733,5.74609,,GENCIMEMONT,0
4203,"VAULNAVEYS-LE-BAS, VAULNAVEYS-LE-BAS LE VILLAGE",45.10533,5.80038,,GENVAULBAS,1
4204,"VAULNAVEYS-LE-BAS, VAULNAVEYS-LE-BAS LE VILLAGE",45.10549,5.80042,,GENVAULBAS,1
4205,"VAULNAVEYS-LE-HAUT, VAULNAVEYS-LE-HAUT LE VILLAGE",45.11935,5.8111,,GENVAULHAUT,1
4206,"VAULNAVEYS-LE-HAUT, VAULNAVEYS-LE-HAUT LE VILLAGE",45.11934,5.81099,,GENVAULHAUT,1
4207,"VAULNAVEYS-LE-HAUT, LES ALBERGES",45.13086,5.81897,,GENALBERGES,1
4209,"VAULNAVEYS-LE-HAUT, LA TUILERIE",45.1363,5.82481,,GENLATUILE,1
4210,"VAULNAVEYS-LE-HAUT, LA TUILERIE",45.13617,5.82423,,GENLATUILE,1
4211,"SAINT-MARTIN-D'URIAGE, URIAGE GARE",45.14399,5.82949,,GENURIAGE,0
4212,"SAINT-MARTIN-D'URIAGE, URIAGE GARE",45.14395,5.82915,,GENURIAGE,0
4221,"VIZILLE, COLLEGE DES MATTONS",45.08654,5.77467,,GENCOLMATTO,0
4223,"VIZILLE, LTE",45.06908,5.76645,,GENLYCEETEC,0
4224,"SAINT-MARTIN-LE-VINOUX, 16 AOUT 1944",45.20413,5.71545,,GENGUERIMAN,0
4225,"SAINT-MARTIN-LE-VINOUX, 16 AOUT 1944",45.20414,5.71545,,GENGUERIMAN,0
4226,"SAINT-MARTIN-LE-VINOUX, CLOS SAINT MARTIN",45.20681,5.71287,,GENCLOSSTMA,0
4227,"SAINT-MARTIN-LE-VINOUX, CLOS SAINT MARTIN",45.20682,5.71283,,GENCLOSSTMA,0
4228,"SAINT-MARTIN-LE-VINOUX, CLOS GERARD GRUEL",45.20968,5.71052,,GENCLOSGRUE,0
4229,"SAINT-MARTIN-LE-VINOUX, CLOS GERARD GRUEL",45.20963,5.71062,,GENCLOSGRUE,0
4230,"SAINT-MARTIN-LE-VINOUX, LA BANCHARDIERE",45.21726,5.71279,,GENBANCHARD,0
4231,"SAINT-MARTIN-LE-VINOUX, LA BANCHARDIERE",45.21722,5.71284,,GENBANCHARD,0
4232,"GRENOBLE, CASAMAURES - VILLAGE",45.19896,5.71813,,GENCASAVILL,1
4233,"GRENOBLE, CASAMAURES - VILLAGE",45.19899,5.71799,,GENCASAVILL,1
4236,"VIZILLE, LES ALLAS",45.07547,5.7786,,GENLESALLAS,1
4237,"VIZILLE, LES ALLAS",45.07544,5.77841,,GENLESALLAS,1
4238,"VIZILLE, LES CORNIERS",45.08176,5.78758,,GENCORNIERS,1
4239,"VIZILLE, LES CORNIERS",45.08143,5.7875,,GENCORNIERS,1
4240,"VIZILLE, LE PONT DU MAS",45.08797,5.78954,,GENPONTMAS,1
4241,"VIZILLE, LE PONT DU MAS",45.08793,5.78977,,GENPONTMAS,1
4242,"VAULNAVEYS-LE-BAS, LES TRAVERS",45.09132,5.79162,,GENTRAVERS,1
4243,"VAULNAVEYS-LE-BAS, LES TRAVERS",45.09106,5.79159,,GENTRAVERS,1
4244,"VAULNAVEYS-LE-BAS, LE PLATRE",45.09398,5.79326,,GENLEPLATRE,1
4245,"VAULNAVEYS-LE-BAS, LE PLATRE",45.09384,5.79326,,GENLEPLATRE,1
4246,"VAULNAVEYS-LE-BAS, MAISON BLANCHE",45.11181,5.80512,,GENMAISON,1
4247,"VAULNAVEYS-LE-BAS, MAISON BLANCHE",45.11168,5.80489,,GENMAISON,1
4248,"VAULNAVEYS-LE-HAUT, MARCHANDISES",45.11483,5.80767,,GENMARCHAND,1
4249,"VAULNAVEYS-LE-HAUT, MARCHANDISES",45.11514,5.80809,,GENMARCHAND,1
4250,"VAULNAVEYS-LE-HAUT, ECOLE JULES BRUANT",45.12172,5.8144,,GENJBRUANT,1
4251,"VAULNAVEYS-LE-HAUT, ECOLE JULES BRUANT",45.12136,5.81416,,GENJBRUANT,1
4252,"VAULNAVEYS-LE-HAUT, LES GUICHARDS",45.12759,5.81678,,GENGUICHARD,1
4253,"VAULNAVEYS-LE-HAUT, LES GUICHARDS",45.12565,5.81688,,GENGUICHARD,1
4262,"VENON, LE CHENIL",45.1631,5.8123,,GENLECHENIL,1
4263,"SAINT-MARTIN-D'URIAGE, LE CHENIL",45.16311,5.81305,,GENLECHENIL,1
4264,"GIERES, LES TERRATS",45.16914,5.79285,,GENTERRATS,0
4265,"GIERES, LES TERRATS",45.16885,5.79363,,GENTERRATS,0
4266,"GIERES, LA COMBE",45.17412,5.79001,,GENLACOMBE,0
4267,"GIERES, LA COMBE",45.1728,5.78988,,GENLACOMBE,0
4278,"SAINT-EGREVE, BELLEVUE",45.24406,5.69244,,GENBELLEVU,0
4279,"SAINT-EGREVE, BELLEVUE",45.24417,5.69253,,GENBELLEVU,1
4280,"GRENOBLE, ESCLANGON",45.19125,5.70683,,GENESCLANGO,0
4281,"GRENOBLE, ESCLANGON",45.19158,5.7065,,GENESCLANGO,1
4282,"SAINT-EGREVE, CHAMPY",45.23991,5.69158,,GENCHAMPY,0
4283,"SAINT-EGREVE, CHAMPY",45.23992,5.69165,,GENCHAMPY,0
4288,"MONT-SAINT-MARTIN, COLAVIERE",45.27237,5.67606,,GENCOLAVIER,0
4289,"MONT-SAINT-MARTIN, COLAVIERE",45.27232,5.6761,,GENCOLAVIER,0
4292,"VAULNAVEYS-LE-HAUT, LES ALBERGES",45.13148,5.81903,,GENALBERGES,1
4293,"SASSENAGE, CHAMECHAUDE",45.20546,5.68326,,GENCHAMECHA,0
4296,"CORENC, LA GARENNE",45.22729,5.76583,,GENGARENNE,0
4297,"LA TRONCHE, CIMETIERE DU GRAND SABLON",45.19251,5.74551,,GENCIMETIGS,1
4298,"LA TRONCHE, CIMETIERE DU GRAND SABLON",45.19247,5.74534,,GENCIMETIGS,1
4299,"LA TRONCHE, HOPITAL",45.20152,5.74227,,GENTRONCHOP,0
4300,"GRENOBLE, STADE LESDIGUIERES",45.16468,5.71066,,GENSTADLESD,1
4301,"GRENOBLE, STADE LESDIGUIERES",45.16437,5.71062,,GENSTADLESD,1
4302,"VIF, LA VALONNE",45.05027,5.67157,,GENLAVALONE,1
4303,"VIF, LA VALONNE",45.05031,5.67129,,GENLAVALONE,1
4304,"GRENOBLE, LOUISE MICHEL",45.17018,5.71291,,GENLMICHEL,1
4305,"GRENOBLE, ALLIES",45.17339,5.71418,,GENALLIES,1
4306,"GRENOBLE, ALLIES",45.17331,5.714,,GENALLIES,1
4307,"GRENOBLE, VALLIER - LIBERATION",45.17908,5.71613,,GENVALLIBE,1
4308,"GRENOBLE, VALLIER - LIBERATION",45.17857,5.71577,,GENVALLIBE,1
4508,"GRENOBLE, SAINT-BRUNO",45.18835,5.71365,,GENSTBRUNOT,0
4509,"GRENOBLE, SAINT-BRUNO",45.18834,5.71405,,GENSTBRUNO,0
4510,"GRENOBLE, BERRIAT-LE MAGASIN",45.1888,5.7065,,GENBERRIAT,0
4511,"GRENOBLE, BERRIAT-LE MAGASIN",45.18879,5.70692,,GENBERRIAT,0
4512,"FONTAINE, LES FONTAINADES",45.18905,5.69835,,GENFONTAINA,0
4513,"FONTAINE, LES FONTAINADES",45.1891,5.69869,,GENFONTAINA,0
4514,"FONTAINE, LOUIS MAISONNAT",45.18921,5.69399,,GENMAISONNA,0
4515,"FONTAINE, LOUIS MAISONNAT",45.18919,5.69448,,GENMAISONNA,0
4516,"FONTAINE, HOTEL DE VILLE - LA SOURCE",45.19142,5.68738,,GENFONTAHDV,0
4517,"FONTAINE, HOTEL DE VILLE - LA SOURCE",45.19173,5.68656,,GENFONTAHDV,0
4518,"FONTAINE, CHARLES MICHELS",45.19405,5.67994,,GENCHARLMIC,0
4519,"FONTAINE, CHARLES MICHELS",45.19398,5.68011,,GENCHARLMIC,0
4520,"FONTAINE, LA POYA",45.19707,5.67254,,GENLAPOYA,0
4521,"FONTAINE, LA POYA",45.19731,5.67221,,GENLAPOYA,0
4550,"GIERES, GIERES GARE - UNIVERSITES",45.18528,5.78409,,GENGIERGARE,0
4551,"GIERES, GIERES GARE - UNIVERSITES",45.18517,5.78421,,GENGIERGARE,0
4552,"GIERES, PLAINE DES SPORTS",45.18742,5.78476,,GENPLAINEDS,0
4553,"GIERES, PLAINE DES SPORTS",45.18751,5.78493,,GENPLAINEDS,0
4554,"GIERES, BIOLOGIE",45.19196,5.77526,,GENBIOLOGIE,0
4555,"GIERES, BIOLOGIE",45.19194,5.77475,,GENBIOLOGIE,0
4556,"SAINT-MARTIN-D'HERES, BIBLIOTHEQUES UNIVERSITAIRES",45.19168,5.77039,,GENBIBLIUNI,0
4557,"SAINT-MARTIN-D'HERES, BIBLIOTHEQUES UNIVERSITAIRES",45.19168,5.77034,,GENBIBLIUNI,0
4558,"SAINT-MARTIN-D'HERES, GABRIEL FAURE",45.19165,5.76404,,GENGABFAURE,0
4559,"SAINT-MARTIN-D'HERES, GABRIEL FAURE",45.19179,5.76405,,GENGABFAURE,0
4560,"SAINT-MARTIN-D'HERES, HECTOR BERLIOZ - UNIVERSITES",45.19136,5.75941,,GENHBERLUNI,0
4561,"SAINT-MARTIN-D'HERES, HECTOR BERLIOZ - UNIVERSITES",45.19144,5.75933,,GENHBERLUNI,0
4562,"SAINT-MARTIN-D'HERES, NEYRPIC - BELLEDONNE",45.18653,5.75706,,GENNEYRBELL,0
4563,"SAINT-MARTIN-D'HERES, NEYRPIC - BELLEDONNE",45.18689,5.75686,,GENNEYRBELL,0
4564,"SAINT-MARTIN-D'HERES, PERI - BROSSOLETTE",45.1876,5.75258,,GENPERIBROS,0
4565,"SAINT-MARTIN-D'HERES, PERI - BROSSOLETTE",45.18783,5.75123,,GENPERIBROS,0
4566,"GRENOBLE, FLANDRIN - VALMY",45.18697,5.74457,,GENVALMY,0
4567,"GRENOBLE, FLANDRIN - VALMY",45.18712,5.7445,,GENFLANVALM,0
4568,"LA TRONCHE, GRAND SABLON",45.19893,5.7496,,GENSABLONS,0
4569,"LA TRONCHE, GRAND SABLON",45.199,5.74967,,GENSABLONS,0
4570,"LA TRONCHE, MICHALLON",45.2005,5.74567,,GENMICHALLO,0
4571,"LA TRONCHE, MICHALLON",45.20044,5.74504,,GENMICHALLO,0
4572,"LA TRONCHE, HOPITAL",45.20091,5.74165,,GENTRONCHOP,0
4573,"LA TRONCHE, HOPITAL",45.20105,5.7416,,GENTRONCHOP,0
4574,"GRENOBLE, ILE VERTE",45.19681,5.73607,,GENILEVERTE,0
4575,"GRENOBLE, ILE VERTE",45.19659,5.73575,,GENILEVERTE,0
4576,"GRENOBLE, HOTEL DE POLICE",45.19407,5.7357,,GENHOPOLICE,0
4577,"GRENOBLE, HOTEL DE POLICE",45.19297,5.73652,,GENHOPOLICE,0
4578,"GRENOBLE, SAINT-ROCH",45.19179,5.73795,,GENSTROCH,0
4579,"GRENOBLE, SAINT-ROCH",45.19169,5.7378,,GENSTROCH,0
4580,"GRENOBLE, MUTUALITE",45.19047,5.73655,,GENMUTUALIT,0
4581,"GRENOBLE, MUTUALITE",45.19078,5.73555,,GENMUTUALIT,0
4582,"GRENOBLE, VERDUN - PREFECTURE",45.18829,5.73167,,GENVERDUN,0
4598,"GRENOBLE, HOTEL DE VILLE",45.18738,5.73755,,GENGREHOTEL,0
4599,"GRENOBLE, HOTEL DE VILLE",45.18754,5.7375,,GENGREHOTEL,0
4600,"GRENOBLE, CHAVANT",45.18451,5.7318,,GENCHAVANT,0
4601,"GRENOBLE, CHAVANT",45.18455,5.73151,,GENCHAVANT,0
4602,"GRENOBLE, GUSTAVE RIVET",45.18221,5.72821,,GENGUSTRIVE,0
4603,"GRENOBLE, GUSTAVE RIVET",45.18247,5.72795,,GENGUSTRIVE,0
4604,"GRENOBLE, FOCH - FERRIE",45.18071,5.72286,,GENFOCHFERI,0
4605,"GRENOBLE, FOCH - FERRIE",45.18099,5.72275,,GENFOCHFERI,0
4606,"GRENOBLE, VALLIER - JAURES",45.18019,5.71581,,GENVALLJAUR,0
4607,"GRENOBLE, VALLIER - JAURES",45.18042,5.71592,,GENVALLJAUR,0
4608,"GRENOBLE, VALLIER - DOCTEUR CALMETTE",45.17999,5.71099,,GENDRCALMET,0
4609,"GRENOBLE, VALLIER - DOCTEUR CALMETTE",45.18028,5.71113,,GENDRCALME,0
4610,"GRENOBLE, VALLIER - CATANE",45.17994,5.70642,,GENVALLCATA,0
4611,"GRENOBLE, VALLIER - CATANE",45.1802,5.70639,,GENVALLCATA,0
4612,"SEYSSINET-PARISET, SEYSSINET HOTEL DE VILLE",45.17985,5.69707,,GENSEYHDV,0
4613,"SEYSSINET-PARISET, SEYSSINET HOTEL DE VILLE",45.18037,5.69592,,GENSEYHDV,0
4614,"SEYSSINET-PARISET, FAUCONNIERE",45.17669,5.69415,,GENFAUCONNI,0
4615,"SEYSSINET-PARISET, FAUCONNIERE",45.17684,5.69399,,GENFAUCONNI,0
4616,"SEYSSINET-PARISET, GRAND PRE",45.17183,5.69412,,GENGRANDPRE,0
4617,"SEYSSINET-PARISET, GRAND PRE",45.17143,5.69391,,GENGRANDPRE,0
4618,"SEYSSINS, MAS DES ILES",45.16776,5.6941,,GENMASDESIL,0
4619,"SEYSSINS, MAS DES ILES",45.16771,5.69397,,GENMASDESIL,0
4620,"SEYSSINS, LE PRISME",45.16623,5.69023,,GENPRISME,0
4621,"SEYSSINS, LE PRISME",45.16639,5.69063,,GENPRISME,0
4622,"GRENOBLE, ALSACE-LORRAINE",45.18874,5.71916,,GENALSACELO,0
4623,"GRENOBLE, ALSACE-LORRAINE",45.18835,5.71919,,GENALSACELO,0
4624,"GRENOBLE, GARES",45.19094,5.71555,,GENGARESNCF,0
4625,"GRENOBLE, FELIX VIALLET",45.1907,5.71771,,GENFELIXVIA,0
4626,"GRENOBLE, FELIX VIALLET",45.1907,5.71771,,GENFELIXVIA,0
4627,"GRENOBLE, GARES",45.19095,5.71557,,GENGARESNCF,0
4628,"GRENOBLE, DOCTEUR MAZET",45.19127,5.72153,,GENDRMAZET,0
4629,"GRENOBLE, DOCTEUR MAZET",45.19132,5.72253,,GENDRMAZET,0
4630,"GRENOBLE, VICTOR HUGO",45.18953,5.72498,,GENVICTHUGO,0
4631,"GRENOBLE, VICTOR HUGO",45.18904,5.7254,,GENVICTHUGO,0
4632,"GRENOBLE, DOCTEUR MARTIN",45.18789,5.72678,,GENDRMARTIN,0
4633,"GRENOBLE, DOCTEUR MARTIN",45.18728,5.72731,,GENDRMARTIN,0
4634,"GRENOBLE, CHAVANT",45.18505,5.73237,,GENCHAVANT,0
4635,"GRENOBLE, CHAVANT",45.18483,5.73246,,GENCHAVANT,0
4672,"GRENOBLE, GAMBETTA",45.18845,5.72317,,GENGAMBETTA,1
4673,"GRENOBLE, GAMBETTA",45.18862,5.72294,,GENGAMBETTA,1
4674,"GRENOBLE, PRESQU'ILE",45.20578,5.6995,,GENPRESQUIL,1
4675,"GRENOBLE, PRESQU'ILE",45.20594,5.69971,,GENPRESQUIL,1
4676,"SAINT-MARTIN-LE-VINOUX, HOTEL DE VILLE",45.20815,5.70702,,GENMAIRIESM,1
4677,"SAINT-MARTIN-LE-VINOUX, HOTEL DE VILLE",45.20785,5.70657,,GENMAIRIESM,1
4678,"GRENOBLE, STADE LESDIGUIERES",45.1639,5.71101,,GENSTADLESD,1
4679,"GRENOBLE, STADE LESDIGUIERES",45.16385,5.7108,,GENSTADLESD,1
4680,"SEYSSINET-PARISET, BOUCHAYER-HOTEL DE VILLE",45.18076,5.69438,,GENSEYHDV,0
4681,"SEYSSINET-PARISET, BOUCHAYER-HOTEL DE VILLE",45.18118,5.69445,,GENSEYHDV,0
4682,"SEYSSINET-PARISET, SEYSSINET-PARISET HOTEL DE VILLE",45.18037,5.69526,,GENSEYHDV,0
4683,"GRENOBLE, POLYGONE SCIENTIFIQUE",45.20457,5.69853,,GENPOLYGSCI,1
4685,"ECHIROLLES, AUGUSTE DELAUNE",45.14336,5.71423,,GENADELAUNE,1
4686,"ECHIROLLES, AUGUSTE DELAUNE",45.14341,5.71427,,GENADELAUNE,1
4687,"SEYSSINET-PARISET, BELVEDERE",45.1765,5.68821,,GENBELVEDER,0
4688,"SEYSSINET-PARISET, BELVEDERE",45.17676,5.68853,,GENBELVEDER,0
4691,"FONTANIL-CORNILLON, LE FONTANIL CIMETIERE",45.25822,5.66408,,GENFONTCIM,0
4692,"FONTANIL-CORNILLON, LE FONTANIL CIMETIERE",45.25823,5.66385,,GENFONTCIM,0
4737,"JARRIE, LES CHABERTS",45.10732,5.74932,,GENCHABER,0
4738,"JARRIE, LES CHABERTS",45.10734,5.74936,,GENCHABER,0
4743,"SEYSSINET-PARISET, MURAILLES",45.17825,5.69178,,GENLAMURAIL,0
4744,"SEYSSINET-PARISET, MURAILLES",45.17844,5.6921,,GENLAMURAIL,0
4745,"VARCES-ALLIERES-ET-RISSET, REPUBLIQUE",45.08585,5.68254,,GENVARCESRE,1
4746,"JARRIE, LE PLATRE",45.11771,5.7478,,GENLEPLATR,1
4747,"JARRIE, LE PLATRE",45.11776,5.7479,,GENLEPLATR,1
4748,"MONT-SAINT-MARTIN, LA RIVOIRE",45.26869,5.6686,,GENLARIVOI,0
4749,"MONT-SAINT-MARTIN, LA RIVOIRE",45.26873,5.66854,,GENLARIVOI,0
4753,"SAINT-MARTIN-LE-VINOUX, LA BUISSERATIERE",45.22311,5.7177,,GENBUIS,1
4754,"SAINT-MARTIN-LE-VINOUX, LA BUISSERATIERE",45.22308,5.71778,,GENBUIS,1
4811,"CORENC, MONUMENT",45.21702,5.75367,,GENMONUMENT,0
4812,"CORENC, MONUMENT",45.217,5.7536,,GENMONUMENT,0
4815,"SAINT-MARTIN-LE-VINOUX, LE REPOSOIR",45.20979,5.71649,,GENREPOSOIR,1
4816,"SAINT-MARTIN-LE-VINOUX, LE REPOSOIR",45.20945,5.71644,,GENREPOSOIR,1
4854,"JARRIE, LE VERNET CROIX",45.09617,5.73978,,GENVERNET,0
4855,"JARRIE, LE VERNET CROIX",45.09617,5.73976,,GENVERNET,0
4856,"JARRIE, LES CHARBONNAUX",45.10098,5.74216,,GENCHARBON,0
4857,"JARRIE, LES CHARBONNAUX",45.10095,5.74213,,GENCHARBON,0
4858,"JARRIE, MAUPERTUIS",45.10558,5.74645,,GENMAUPERTJ,0
4859,"JARRIE, MAUPERTUIS",45.10561,5.74645,,GENMAUPERTJ,0
4862,"JARRIE, LE CLOS JOUVIN",45.09441,5.74362,,GENCLOJOU,0
4863,"JARRIE, LE CLOS JOUVIN",45.0944,5.74362,,GENCLOJOU,0
4898,"QUAIX-EN-CHARTREUSE, ECOLES",45.25346,5.71992,,GENECOLE,0
4899,"VENON, CUL FROID",45.17006,5.80859,,GENCULFROID,1
4900,"VENON, CUL FROID",45.17006,5.80858,,GENCULFROID,1
4901,"VENON, LA FRENAIE",45.1734,5.79512,,GENFRENAIE,1
4902,"VENON, LA FRENAIE",45.17338,5.79514,,GENFRENAIE,1
4905,"VIZILLE, LE CHATEAU",45.07557,5.77247,,GENCHAT,1
4906,"VIZILLE, LE CHATEAU",45.07572,5.77221,,GENCHAT,1
4908,"FONTAINE, PLACE DU MARCHE CACHIN",45.1956,5.69083,,GENPLACMARC,0
4909,"FONTAINE, LES ECRINS",45.1975,5.68632,,GENECRINS,0
4910,"FONTAINE, LES ECRINS",45.19753,5.68631,,GENECRINS,1
4911,"FONTAINE, RUE PASTEUR",45.19433,5.69419,,GENRUEPASTE,0
4912,"FONTAINE, RUE PASTEUR",45.19437,5.69417,,GENRUEPASTE,1
4913,"SEYSSINET-PARISET, BERGES - VERCORS",45.18367,5.69045,,GENARBERGES,0
4914,"MEYLAN, HAUTS DE MEYLAN (EXPRESS)",45.2183,5.77922,,GENHAUTMEL,0
4915,"MEYLAN, HAUTS DE MEYLAN (EXPRESS)",45.21835,5.77924,,GENHAUTMEL,0
4916,"GIERES, EDELWEISS",45.18129,5.78811,,GENEDELWEIS,0
4917,"GIERES, EDELWEISS",45.18145,5.78803,,GENEDELWEIS,0
4918,"SAINT-EGREVE, CHEMIN FIANCEY",45.22865,5.69171,,GENFIANCEY,0
4919,"SAINT-EGREVE, CHEMIN FIANCEY",45.2286,5.69174,,GENFIANCEY,0
4920,"PROVEYSIEUX, LA CHIAISE",45.26117,5.69831,,GENCHIAISE,0
4921,"PROVEYSIEUX, LA CHIAISE",45.26114,5.69833,,GENCHIAISE,0
4922,"SAINT-EGREVE, ROCHER D'ESCALADE",45.24377,5.6792,,GENROCHERES,0
4923,"SAINT-EGREVE, ROCHER D'ESCALADE",45.24375,5.67901,,GENROCHERES,0
4924,"SAINT-EGREVE, GAVANIERE",45.24122,5.68148,,GENGAVANIER,0
4925,"SAINT-EGREVE, GAVANIERE",45.24112,5.68156,,GENGAVANIER,0
5032,"SAINT-MARTIN-D'HERES, MAISON COMMUNALE",45.18412,5.75414,,GENMAISONCO,0
5033,"SAINT-MARTIN-D'HERES, MAISON COMMUNALE",45.1839,5.7541,,GENMAISONCO,0
5034,"SAINT-MARTIN-D'HERES, EDOUARD VAILLANT",45.17916,5.75539,,GENEDVAILLA,0
5035,"SAINT-MARTIN-D'HERES, EDOUARD VAILLANT",45.17929,5.75535,,GENEDVAILLA,0
5036,"SAINT-MARTIN-D'HERES, PARC JO BLANCHON",45.17585,5.75681,,GENBLANCHON,0
5037,"SAINT-MARTIN-D'HERES, PARC JO BLANCHON",45.17593,5.75681,,GENBLANCHON,0
5038,"SAINT-MARTIN-D'HERES, ETIENNE GRAPPE",45.17204,5.75775,,GENETIEGRAP,0
5039,"SAINT-MARTIN-D'HERES, ETIENNE GRAPPE",45.17222,5.75775,,GENETIEGRAP,0
5040,"SAINT-MARTIN-LE-VINOUX, ST M.LE VINOUX - MAIRIE",45.20785,5.70653,,GENSTMARTVI,0
5041,"SAINT-MARTIN-LE-VINOUX, ST M LE VINOUX - MAIRIE",45.20792,5.70664,,GENSTMARTVI,0
5054,"GRENOBLE, PALAIS DE JUSTICE",45.19123,5.71177,,GENPALJUSTI,0
5055,"GRENOBLE, PALAIS DE JUSTICE",45.19122,5.71174,,GENPALJUSTI,0
5056,"GRENOBLE, CITE INTERNATIONALE",45.19509,5.71121,,GENCITEINTE,0
5057,"GRENOBLE, CITE INTERNATIONALE",45.19507,5.71125,,GENCITEINTE,0
5058,"GRENOBLE, CEA CAMBRIDGE",45.20124,5.70584,,GENCEACAMB,0
5059,"GRENOBLE, CEA CAMBRIDGE",45.20121,5.70589,,GENCEACAMB,0
5060,"GRENOBLE, PRESQU'ILE",45.20573,5.69977,,GENPRESQUIL,0
5061,"GRENOBLE, PRESQU'ILE",45.20591,5.6999,,GENPRESQUIL,0
5065,"SAINT-MARTIN-D'HERES, NEYRPIC - BELLEDONNE",45.18659,5.75729,,GENNEYRBELL,0
5066,"SAINT-MARTIN-D'HERES, NEYRPIC - BELLEDONNE",45.18661,5.75729,,GENNEYRBELL,0
5069,"GRENOBLE, CASAMAURES - VILLAGE",45.19952,5.71688,,GENCASAVILL,0
5070,"GIERES, GIERES GARE - UNIVERSITES",45.18526,5.78464,,GENGIERGARE,0
5071,"SAINT-MARTIN-LE-VINOUX, HORLOGE",45.21382,5.69854,,GENHORLOGE,0
5072,"SAINT-MARTIN-LE-VINOUX, HORLOGE",45.21372,5.69852,,GENHORLOGE,0
5073,"SAINT-MARTIN-LE-VINOUX, NERON",45.21772,5.69396,,GENNERON,0
5074,"SAINT-MARTIN-LE-VINOUX, NERON",45.21758,5.6935,,GENNERON,0
5075,"SAINT-EGREVE, FIANCEY - PREDIEU",45.22303,5.68902,,GENPREDIEU,0
5076,"SAINT-EGREVE, FIANCEY - PREDIEU",45.22281,5.68604,,GENPREDIEU,0
5077,"SAINT-EGREVE, MURET",45.22608,5.68622,,GENMURET,0
5078,"SAINT-EGREVE, MURET",45.22575,5.68643,,GENMURET,0
5079,"SAINT-EGREVE, PONT DE VENCE",45.23006,5.68252,,GENPTVENCE,0
5080,"SAINT-EGREVE, PONT DE VENCE",45.2298,5.68247,,GENPTVENCE,0
5081,"SAINT-EGREVE, LA PINEA - ST ROBERT",45.2356,5.67581,,GENPINEA,0
5082,"SAINT-EGREVE, LA PINEA - ST ROBERT",45.23526,5.67599,,GENPINEA,0
5083,"SAINT-EGREVE, KARBEN",45.24229,5.67134,,GENKARBEN,0
5084,"SAINT-EGREVE, KARBEN",45.2421,5.67121,,GENKARBEN,0
5085,"FONTANIL-CORNILLON, RAFOUR",45.24833,5.66648,,GENRAFOUR,0
5086,"FONTANIL-CORNILLON, RAFOUR",45.24807,5.66657,,GENRAFOUR,0
5087,"FONTANIL-CORNILLON, FONTANIL - PALLUEL",45.25499,5.66164,,GENFONTANIL,0
5088,"FONTANIL-CORNILLON, FONTANIL - PALLUEL",45.25473,5.66164,,GENFONTANIL,0
6804,"VIZILLE, LTE",45.06912,5.76649,,GENLTE,0
6805,"VIZILLE, LTE",45.0691,5.76644,,GENLTE,0
6806,"VIZILLE, PEAGE DE VIZILLE",45.05704,5.77332,,GENPEAGEDEV,0
6807,"BRIE-ET-ANGONNES, NAPOLEON - SOUVEYRON",45.13108,5.777,,GENNAPOLEON,0
6808,"BRIE-ET-ANGONNES, NAPOLEON - SOUVEYRON",45.13109,5.77703,,GENNAPOLEON,0
6811,"MONTCHABOUD, MONTCHABOUD VILLAGE",45.09568,5.76341,,GENMONTCHAV,0
GEN16AOUT44,"SAINT-MARTIN-LE-VINOUX, RESISTANCE",45.20341,5.71433,1,,0
GEN8MAI1945,"SAINT-MARTIN-D'HERES, 8 MAI 1945",45.17106,5.75682,1,,0
GENABBEGREG,"GRENOBLE, ABBE GREGOIRE",45.18388,5.71174,1,,0
GENADELAUNE,"ECHIROLLES, AUGUSTE DELAUNE",45.1425,5.71542,1,,0
GENAIGUIHEX,"MEYLAN, AIGUINARDS-HEXAGONE",45.20512,5.76471,1,,0
GENALB1BELG,"GRENOBLE, ALBERT 1ER DE BELGIQUE",45.18168,5.73167,1,,0
GENALBERGES,"VAULNAVEYS-LE-HAUT, LES ALBERGES",45.13148,5.81903,1,,0
GENALEGRANG,"VIF, ALLEE DES GRANGES",45.05795,5.68472,1,,0
GENALEMBERT,"GRENOBLE, D'ALEMBERT",45.18422,5.71064,1,,0
GENALLENICE,"LE PONT-DE-CLAIX, ALLEES DE NICE",45.13166,5.7,1,,0
GENALLIES,"GRENOBLE, ALLIES",45.17398,5.71427,1,,0
GENALLOVES,"SAINT-MARTIN-D'HERES, LES ALLOVES",45.1719,5.76493,1,,0
GENALPEXPO,"EYBENS, ALPEXPO",45.15449,5.73379,1,,0
GENALSACELO,"GRENOBLE, ALSACE-LORRAINE",45.18911,5.7193,1,,0
GENANATFRAN,"GRENOBLE, ANATOLE FRANCE",45.17186,5.70495,1,,0
GENANCIEMAI,"FONTAINE, ANCIENNE MAIRIE",45.19272,5.67806,1,,0
GENANCIGARE,"SEYSSINS, ANCIENNE GARE",45.15978,5.68178,1,,0
GENANGONNES,"BRIE-ET-ANGONNES, LES ANGONNES",45.13993,5.77617,1,,0
GENANGUISSE,"SAINT-MARTIN-D'HERES, ANGUISSES",45.17782,5.77786,1,,0
GENARAGO,"GRENOBLE, ARAGO",45.19709,5.71174,1,,0
GENARBERGES,"SEYSSINET-PARISET, ARISTIDE BERGES",45.18551,5.69465,1,,0
GENARGOUD,"SEYSSINS, L'ARGOUD",45.15433,5.68029,1,,0
GENARGOUGES,"GRENOBLE, ANDRE ARGOUGES",45.17506,5.74475,1,,0
GENARLEQUIN,"GRENOBLE, ARLEQUIN",45.16359,5.73047,1,,0
GENARNAUDS,"DOMENE, LES ARNAUDS",45.20683,5.84788,1,,0
GENARZELIER,"LE GUA, L'ARZELIER",44.99692,5.60258,1,,0
GENAUGUFERR,"ECHIROLLES, AUGUSTE FERRIER",45.14483,5.70962,1,,0
GENAUGURAVI,"GRENOBLE, AUGUSTE RAVIER",45.18399,5.73965,1,,0
GENAVREPUB,"BRESSON, AVENUE DE LA REPUBLIQUE",45.14279,5.73589,1,,0
GENBABIERE,"FONTANIL-CORNILLON, RAFOUR",45.24864,5.66615,1,,0
GENBACHELAR,"GRENOBLE, BACHELARD",45.16718,5.7052,1,,0
GENBAJATIER,"GRENOBLE, BAJATIERE",45.17813,5.73614,1,,0
GENBALMETTE,"CLAIX, LA BALMETTE",45.12521,5.68811,1,,0
GENBALZAZ,"VARCES-ALLIERES-ET-RISSET, BALZAC",45.08728,5.69421,1,,0
GENBANCHARD,"SAINT-MARTIN-LE-VINOUX, LA BANCHARDIERE",45.21726,5.71279,1,,0
GENBARBET,"QUAIX-EN-CHARTREUSE, LE BARBET",45.25801,5.70815,1,,0
GENBARNA,"SAINT-EGREVE, COLLEGE BARNAVE",45.23097,5.69175,1,,0
GENBASCULE,"SAINT-PAUL-DE-VARCES, LA BASCULE",45.07181,5.65496,1,,0
GENBASMONT,"QUAIX-EN-CHARTREUSE, BAS DE MONT-QUAIX",45.25288,5.74174,1,,0
GENBASPET,"QUAIX-EN-CHARTREUSE, BAS DE PETESSET",45.25635,5.71059,1,,0
GENBASQUAIX,"QUAIX-EN-CHARTREUSE, LE BAS DE QUAIX",45.25399,5.70142,1,,0
GENBASTILLE,"LA TRONCHE, BASTILLE",45.20444,5.7376,1,,0
GENBAUCHES,"CLAIX, LES BAUCHES",45.11083,5.67865,1,,0
GENBAYANNE,"MIRIBEL-LANCHATRE, BAYANNE",44.97996,5.62235,1,,0
GENBAYARD,"ECHIROLLES, BAYARD",45.14565,5.70465,1,,0
GENBEALIERE,"MEYLAN, LES BEALIERES",45.21153,5.7907,1,,0
GENBEAULIEU,"BRIE-ET-ANGONNES, BEAULIEU",45.13855,5.77355,1,,0
GENBEAUREVO,"SASSENAGE, BEAUREVOIR",45.21009,5.64861,1,,0
GENBEAUSITE,"SEYSSINET-PARISET, BEAU SITE",45.17591,5.69696,1,,0
GENBEAUVERT,"GRENOBLE, BEAUVERT",45.16417,5.71792,1,,0
GENBEAUVOIR,"SEYSSINS, BEAUVOIR",45.15899,5.68325,1,,0
GENBELAIR,"EYBENS, BEL AIR",45.16106,5.75525,1,,0
GENBELHORIZ,"CLAIX, BEL HORIZON",45.10866,5.672,1,,0
GENBELLEDON,"SAINT-EGREVE, BELLEDONNE",45.22267,5.684,1,,0
GENBELLEVU,"SAINT-EGREVE, BELLEVUE",45.24406,5.69244,1,,0
GENBELLEVUE,"CLAIX, BELLEVUE",45.11196,5.66548,1,,0
GENBELVEDER,"SEYSSINET-PARISET, BELVEDERE",45.1765,5.68821,1,,0
GENBERIVIER,"MEYLAN, BERIVIERE",45.21882,5.78312,1,,0
GENBERLIOGN,"VARCES-ALLIERES-ET-RISSET, BERLIOGNIERE",45.08998,5.69249,1,,0
GENBERRIAT,"GRENOBLE, BERRIAT-LE MAGASIN",45.18867,5.7059,1,,0
GENBERYL,"VEUREY-VOROIZE, LE BERYL",45.2748,5.61283,1,,0
GENBIBLIUNI,"GIERES, BIBLIOTHEQUES UNIVERSITAIRES",45.19246,5.7709,1,,0
GENBIOLOGIE,"GIERES, UNIVERSITES - BIOLOGIE",45.19195,5.77474,1,,0
GENBIRHAKEI,"GRENOBLE, BIR HAKEIM",45.18886,5.73639,1,,0
GENBLANCFON,"SASSENAGE, BLANC FONTAINE",45.21064,5.65625,1,,0
GENBLANCHON,"SAINT-MARTIN-D'HERES, PARC JO BLANCHON",45.17585,5.75684,1,,0
GENBONPASTE,"GRENOBLE, BON PASTEUR",45.17858,5.7499,1,,0
GENBOULODRO,"CLAIX, BOULODROME-ECOLE",45.11962,5.66899,1,,0
GENBOURG,"MURIANETTE, LE BOURG",45.19187,5.81647,1,,0
GENBOURNET,"SEYSSINS, LE BOURNET",45.15765,5.68975,1,,0
GENBRESSON,"BRESSON, BRESSON MAIRIE",45.1377,5.74771,1,,0
GENBRIE,"BRIE-ET-ANGONNES, MONT ROLLAND",45.11528,5.78405,1,,0
GENBRIECOLE,"BRIE-ET-ANGONNES, L'OLYMPE",45.11784,5.78285,1,,0
GENBRIEGLIS,"BRIE-ET-ANGONNES, EGLISE",45.11119,5.78653,1,,0
GENBRIOT,"MURIANETTE, LA BRIOT",45.19299,5.81948,1,,0
GENBRUYERE,"GRENOBLE, LA BRUYERE",45.16635,5.73118,1,,0
GENBUCLOS,"CORENC, BUCLOS",45.21581,5.77226,1,,0
GENBUIS,"SAINT-MARTIN-LE-VINOUX, LA BUISSERATIERE",45.22308,5.71778,1,,0
GENCAP38,"SAINT-EGREVE, CAP 38",45.24018,5.66619,1,,0
GENCAPDESH,"SAINT-EGREVE, CAP DES H'",45.21732,5.68127,1,,0
GENCAPUCHE,"GRENOBLE, CAPUCHE",45.17607,5.7248,1,,0
GENCARINA,"SAINT-MARTIN-D'HERES, LE CARINA",45.16238,5.76305,1,,0
GENCARONBAS,"LA TRONCHE, LA CARRONNERIE BASSE",45.20094,5.75814,1,,0
GENCARONRIE,"LA TRONCHE, CARRONNERIE - ILE D'AMOUR",45.2006,5.75804,1,,0
GENCARRIERE,"CLAIX, CARRIERE",45.11472,5.69018,1,,0
GENCASANOVA,"ECHIROLLES, DANIELLE CASANOVA",45.14448,5.70071,1,,0
GENCASAVILL,"GRENOBLE, CASAMAURES - VILLAGE",45.19953,5.71678,1,,0
GENCASBONNE,"GRENOBLE, CASERNE DE BONNE",45.18505,5.72533,1,,0
GENCASSOULE,"MIRIBEL-LANCHATRE, CASSOULET",44.98229,5.62309,1,,0
GENCEACAMB,"GRENOBLE, CEA - CAMBRIDGE",45.20121,5.70589,1,,0
GENCEDRE,"CORENC, LE CEDRE",45.20783,5.75552,1,,0
GENCEMOI,"GRENOBLE, CEMOI",45.18495,5.70573,1,,0
GENCENSOCIO,"POISAT, CENTRE SOCIO-CULTUREL",45.15821,5.75974,1,,0
GENCENTHEOL,"LA TRONCHE, CENTRE THEOLOGIQUE",45.20617,5.75215,1,,0
GENCENTRAER,"QUAIX-EN-CHARTREUSE, CENTRE AERE",45.24753,5.72295,1,,0
GENCENTRESU,"SEYSSINS, GRAND PRE - CENTRE SUD",45.17084,5.69457,1,,0
GENCENTRSOC,"SEYSSINET-PARISET, L'ARCHE",45.17817,5.69702,1,,0
GENCENTRVIL,"SEYSSINET-PARISET, CENTRE-VILLAGE",45.17051,5.68077,1,,0
GENCHABER,"JARRIE, LES CHABERTS",45.10734,5.74936,1,,0
GENCHALET,"VIF, LE CHALET",45.04333,5.6644,1,,0
GENCHAMBORD,"VARCES-ALLIERES-ET-RISSET, CHAMBORD",45.08519,5.66714,1,,0
GENCHAMECHA,"SASSENAGE, CHAMECHAUDE",45.2051,5.68348,1,,0
GENCHAMPFIL,"EYBENS, CHAMP FILA",45.15627,5.75505,1,,0
GENCHAMPION,"GRENOBLE, CHAMPIONNET",45.18554,5.72318,1,,0
GENCHAMPLAR,"MEYLAN, CHAMPLARS",45.22023,5.77982,1,,0
GENCHAMPOLL,"GRENOBLE, CHAMPOLLION",45.1862,5.72499,1,,0
GENCHAMPROM,"SAINT-MARTIN-D'HERES, CHAMP ROMAN",45.18453,5.76746,1,,0
GENCHAMPRON,"GIERES, CHAMPRONDET",45.18578,5.80285,1,,0
GENCHAMPSEL,"GRENOBLE, CHAMPS-ELYSEES",45.17794,5.71025,1,,0
GENCHAMPY,"SAINT-EGREVE, CHAMPY",45.23991,5.69158,1,,0
GENCHAMROC,"MEYLAN, CHAMP ROCHAS",45.20744,5.75903,1,,0
GENCHANTEFE,"VIZILLE, CHANTEFEUILLE",45.08058,5.77486,1,,0
GENCHANTERA,"CLAIX, LA CHANTERAIE",45.11012,5.66548,1,,0
GENCHARBON,"JARRIE, LES CHARBONNAUX",45.10098,5.74215,1,,0
GENCHARLMIC,"FONTAINE, CHARLES MICHELS",45.19385,5.68009,1,,0
GENCHARMETS,"SAINT-EGREVE, MURET",45.22595,5.68613,1,,0
GENCHARMETT,"FONTAINE, CHARMETTES",45.1974,5.69355,1,,0
GENCHARPEN,"QUAIX-EN-CHARTREUSE, LE CHARPEN",45.24256,5.72548,1,,0
GENCHARRIER,"CLAIX, CHARRIERES",45.11599,5.68888,1,,0
GENCHAT,"VIZILLE, LE CHATEAU",45.07572,5.77221,1,,0
GENCHATEAU,"ECHIROLLES, LE CHATEAU",45.14732,5.72671,1,,0
GENCHATEAUQ,"QUAIX-EN-CHARTREUSE, LE CHATEAU",45.25216,5.72202,1,,0
GENCHATEAUX,"VEUREY-VOROIZE, CHEMIN DU PARC",45.27449,5.60613,1,,0
GENCHATELAR,"VEUREY-VOROIZE, CHATELARD",45.27353,5.60481,1,,0
GENCHATELIE,"EYBENS, LA CHATELIERE",45.16217,5.74903,1,,0
GENCHATSASS,"SASSENAGE, CHATEAU",45.21224,5.66167,1,,0
GENCHAULNES,"NOYAREY, LES CHAULNES",45.23655,5.63811,1,,0
GENCHAUMETI,"MEYLAN, CHAUMETIERE",45.2124,5.76983,1,,0
GENCHAUMIER,"SEYSSINS, HAMEAU DES CHAUMIERES",45.1547,5.68938,1,,0
GENCHAVANT,"GRENOBLE, CHAVANT",45.18466,5.73177,1,,0
GENCHEABBE,"CLAIX, CHEMIN DE L'ABBE",45.13521,5.66842,1,,0
GENCHEMAUPA,"NOYAREY, RUE DU MAUPAS",45.2459,5.62949,1,,0
GENCHEMBATO,"CORENC, BATONNIERE",45.22733,5.75876,1,,0
GENCHEMI,"SAINT-MARTIN-LE-VINOUX, CANET",45.21003,5.70704,1,,0
GENCHEMVER,"SAINT-EGREVE, CHEMIN VERT",45.23659,5.69236,1,,0
GENCHENAIE,"CLAIX, LA CHENAIE",45.11419,5.67268,1,,0
GENCHENES,"SASSENAGE, LES CHENES",45.21809,5.65343,1,,0
GENCHENEVIE,"DOMENE, CHENEVIERES",45.20673,5.82734,1,,0
GENCHIAISE,"PROVEYSIEUX, LA CHIAISE",45.26117,5.69831,1,,0
GENCHIEZE,"CLAIX, LA CHIEZE",45.12118,5.68251,1,,0
GENCHOLLET,"BRIE-ET-ANGONNES, LE CHOLLET",45.14025,5.78364,1,,0
GENCHOPIN,"SAINT-MARTIN-D'HERES, CHOPIN",45.16605,5.75142,1,,0
GENCHORCOND,"GRENOBLE, CHORIER - CONDORCET",45.18593,5.71744,1,,0
GENCHRISTUR,"GRENOBLE, CHRISTOPHE TURC",45.16137,5.72414,1,,0
GENCHURU,"LE SAPPEY-EN-CHARTREUSE, CHURUT",45.26474,5.77743,1,,0
GENCIMEBOUR,"VIF, LA CIME DU BOURG",45.04812,5.66739,1,,0
GENCIMEMONT,"QUAIX-EN-CHARTREUSE, LA CIME DE MONT-QUAIX",45.25733,5.74609,1,,0
GENCIMENTIE,"CLAIX, LES CIMENTIERS",45.13047,5.68357,1,,0
GENCIMESEYP,"SEYSSINET-PARISET, CIMETIERE",45.16967,5.68346,1,,0
GENCIMETIGA,"SEYSSINS, CIMETIERE DES GARLETTES",45.14524,5.67678,1,,0
GENCIMETIGS,"LA TRONCHE, CIMETIERE DU GRAND SABLON",45.19247,5.74534,1,,0
GENCITEINTE,"GRENOBLE, CITE INTERNATIONALE",45.19508,5.7112,1,,0
GENCITELABE,"SAINT-MARTIN-D'HERES, CITE LABEYE",45.18222,5.76037,1,,0
GENCITEMACE,"GRENOBLE, CITE JEAN MACE",45.19996,5.7105,1,,0
GENCITEPMIS,"GRENOBLE, CITE PAUL MISTRAL",45.16855,5.70479,1,,0
GENCITESCOL,"VARCES-ALLIERES-ET-RISSET, CITE SCOLAIRE",45.09496,5.6744,1,,0
GENCLAIXMAI,"CLAIX, CLAIX MAIRIE",45.12025,5.67247,1,,0
GENCLEMENCE,"GRENOBLE, CLEMENCEAU",45.18388,5.74107,1,,0
GENCLINBELD,"SAINT-MARTIN-D'HERES, CLINIQUE BELLEDONNE",45.18598,5.76095,1,,0
GENCLOJOU,"JARRIE, LE CLOS JOUVIN",45.09441,5.74362,1,,0
GENCLOSDOMI,"LE PONT-DE-CLAIX, CLOS DOMINIQUE",45.13546,5.70127,1,,0
GENCLOSDOR,"GRENOBLE, CLOS D'OR",45.16955,5.72321,1,,0
GENCLOSGRUE,"SAINT-MARTIN-LE-VINOUX, CLOS GERARD GRUEL",45.20968,5.71052,1,,0
GENCLOSSTMA,"SAINT-MARTIN-LE-VINOUX, CLOS SAINT MARTIN",45.20681,5.71287,1,,0
GENCOLARZEL,"CHATEAU-BERNARD, COL DE L'ARZELIER",44.99023,5.5951,1,,0
GENCOLAVIER,"MONT-SAINT-MARTIN, COLAVIERE",45.27237,5.67606,1,,0
GENCOLCHART,"SAINT-MARTIN-LE-VINOUX, COLLEGE CHARTREUSE",45.21784,5.69096,1,,0
GENCOLCLEME,"SAINT-MARTIN-LE-VINOUX, COL DE CLEMENCIERES",45.23437,5.72578,1,,0
GENCOLCOMBO,"CLAIX, COL DE COMBOIRE",45.14004,5.6732,1,,0
GENCOLI,"SAINT-MARTIN-D'HERES, COLI",45.18073,5.76596,1,,0
GENCOLMANHE,"ECHIROLLES, COLONEL MANHES",45.14647,5.70177,1,,0
GENCOLMATTO,"VIZILLE, COLLEGE DES MATTONS",45.08654,5.77467,1,,0
GENCOLPORTE,"SARCENAS, COL DE PORTE",45.28982,5.76704,1,,0
GENCOLVENCE,"CORENC, COL DE VENCE",45.234,5.75107,1,,0
GENCOMBOIRE,"ECHIROLLES, COMBOIRE",45.14583,5.69081,1,,0
GENCOMMANAL,"LA TRONCHE, COMMANDANT NAL",45.20324,5.74535,1,,0
GENCOMMANDE,"ECHIROLLES, COMMANDERIE",45.14453,5.73319,1,,0
GENCOMPLEXE,"SASSENAGE, COMPLEXE SPORTIF",45.21142,5.67272,1,,0
GENCONDIUNI,"SAINT-MARTIN-D'HERES, CONDILLAC - UNIVERSITES",45.18915,5.77445,1,,0
GENCONDORCE,"GRENOBLE, CONDORCET",45.18553,5.71823,1,,0
GENCONRADKI,"SAINT-MARTIN-LE-VINOUX, CONRAD KILIAN",45.20592,5.70944,1,,0
GENCORENCMA,"CORENC, CORENC MAIRIE",45.20974,5.75272,1,,0
GENCORENCVI,"CORENC, CORENC VILLAGE",45.21983,5.76229,1,,0
GENCORNEDOR,"CORENC, LA CORNE D'OR",45.21809,5.76046,1,,0
GENCORNIERS,"VIZILLE, LES CORNIERS",45.08176,5.78758,1,,0
GENCOSSEY,"CLAIX, COSSEY",45.13895,5.67006,1,,0
GENCOTEAU,"CLAIX, LE COTEAU",45.12669,5.6867,1,,0
GENCOTESASS,"SASSENAGE, LES COTES",45.21006,5.64749,1,,0
GENCOUBERTI,"DOMENE, COUBERTIN",45.20004,5.83528,1,,0
GENCROIX,"SAINT-PAUL-DE-VARCES, LA CROIX",45.07055,5.64494,1,,0
GENCROIXROU,"SAINT-MARTIN-D'HERES, CROIX ROUGE",45.18558,5.7479,1,,0
GENCRXROLLA,"CLAIX, LA CROIX ROLLAND",45.1292,5.67128,1,,0
GENCULFROID,"VENON, CUL FROID",45.17006,5.80858,1,,0
GENCURIVERC,"FONTAINE, CURIE - VERCORS",45.19188,5.69505,1,,0
GENCUVILLEU,"SAINT-EGREVE, CUVILLEUX",45.2349,5.68768,1,,0
GENCXCIBENS,"MEYLAN, CROIX DE CIBEINS",45.226,5.7842,1,,0
GENCXMONTFL,"CORENC, CROIX DE MONTFLEURY",45.20879,5.74934,1,,0
GENCXPATRE,"SAINT-MARTIN-D'HERES, CROIX DU PATRE",45.16821,5.76174,1,,0
GENCXRAMEAU,"MEYLAN, CROIX DES RAMEAUX",45.22374,5.78177,1,,0
GENDEGAULLE,"EYBENS, GENERAL DE GAULLE",45.16187,5.74501,1,,0
GENDENPAPIN,"ECHIROLLES, DENIS PAPIN",45.13832,5.71307,1,,0
GENDEPORTES,"GRENOBLE, RUE DES DEPORTES",45.17829,5.72771,1,,0
GENDETOURBE,"MEYLAN, LA DETOURBE",45.22278,5.7927,1,,0
GENDOMENEMA,"DOMENE, DOMENE MAIRIE",45.20152,5.83821,1,,0
GENDOYENGOS,"LA TRONCHE, DOYEN GOSSE",45.20138,5.75303,1,,0
GENDRAC,"CLAIX, MEMORIAL",45.12265,5.69102,1,,0
GENDRAC2,"ECHIROLLES, DRAC",45.14895,5.69397,1,,0
GENDRCALME,"GRENOBLE, VALLIER - DOCTEUR CALMETTE",45.18013,5.71077,1,,0
GENDRCALMET,"GRENOBLE, VALLIER - DOCTEUR CALMETTE",45.17999,5.71099,1,,0
GENDRIANT,"GRENOBLE, DRIANT",45.18228,5.7341,1,,0
GENDRMARTIN,"GRENOBLE, DOCTEUR MARTIN",45.18731,5.72728,1,,0
GENDRMAZET,"GRENOBLE, DOCTEUR MAZET",45.19108,5.72059,1,,0
GENDRSCHWEI,"GRENOBLE, DOCTEUR SCHWEITZER",45.17245,5.70632,1,,0
GENDUBEDOUT,"GRENOBLE, HUBERT DUBEDOUT - MAISON DU TOURISME",45.1902,5.72822,1,,0
GENECHALIER,"VEUREY-VOROIZE, LES ECHALIERES",45.26824,5.61944,1,,0
GENECHIGARD,"ECHIROLLES, ECHIROLLES GARE",45.15321,5.71927,1,,0
GENECHIGARE,"ECHIROLLES, ECHIROLLES GARE",45.15302,5.71848,1,,0
GENECOLE,"QUAIX-EN-CHARTREUSE, ECOLES",45.25346,5.71992,1,,0
GENECOLEREY,"VIF, ECOLE REYMURE",45.06908,5.69334,1,,0
GENECOLHOSP,"ECHIROLLES, ECOLES HOSPITALIERES",45.14638,5.72973,1,,0
GENECOLMUSI,"ECHIROLLES, ECOLE DE MUSIQUE JEAN WIENER",45.14072,5.70301,1,,0
GENECRINS,"FONTAINE, LES ECRINS",45.19753,5.68631,1,,0
GENECUREUIL,"ECHIROLLES, ECUREUIL",45.14355,5.70399,1,,0
GENEDELWEIS,"GIERES, EDELWEISS",45.18149,5.78755,1,,0
GENEDISON,"GRENOBLE, EDISON",45.18183,5.74091,1,,0
GENEDMOESMO,"GRENOBLE, EDMOND ESMONIN",45.15937,5.72662,1,,0
GENEDROSTAN,"SAINT-MARTIN-D'HERES, EDMOND ROSTAND",45.17446,5.75432,1,,0
GENEDVAILLA,"SAINT-MARTIN-D'HERES, EDOUARD VAILLANT",45.17952,5.75518,1,,0
GENEGLANTIE,"CLAIX, LES EGLANTIERS",45.11816,5.67297,1,,0
GENEGLISE,"SAINT-EGREVE, EGLISE",45.24016,5.68385,1,,0
GENEGRECOLE,"PROVEYSIEUX, PROVEYSIEUX VILLAGE",45.26335,5.69973,1,,0
GENEGREGUA,"PROVEYSIEUX, PONT DU GUA",45.27608,5.70727,1,,0
GENEGREMOLL,"PROVEYSIEUX, LE MOLLARD",45.25822,5.69591,1,,0
GENELSATRIO,"SAINT-MARTIN-D'HERES, ELSA TRIOLET",45.17958,5.77015,1,,0
GENEMILGUEY,"GRENOBLE, EMILE GUEYMARD",45.19501,5.71351,1,,0
GENENGENIER,"SASSENAGE, LES ENGENIERES",45.2196,5.66022,1,,0
GENEPICEA,"GIERES, EPICEA",45.1946,5.77597,1,,0
GENESCLANGO,"GRENOBLE, ESCLANGON",45.19158,5.7065,1,,0
GENESPLANAD,"GRENOBLE, ESPLANADE CENTRE",45.19566,5.71679,1,,0
GENESSARTS,"ECHIROLLES, ESSARTS - LA BUTTE",45.15588,5.71909,1,,0
GENETIEGRAP,"SAINT-MARTIN-D'HERES, ETIENNE GRAPPE",45.17213,5.75769,1,,0
GENEUGENESU,"GRENOBLE, EUGENE SUE",45.17284,5.72476,1,,0
GENEYGALA,"CORENC, EYGALA",45.21385,5.76461,1,,0
GENFACPHARM,"MEYLAN, FACULTE DE PHARMACIE",45.2115,5.77392,1,,0
GENFAUCONNI,"SEYSSINET-PARISET, FAUCONNIERE",45.17651,5.69427,1,,0
GENFAYARDS,"CLAIX, LES FAYARDS",45.1221,5.67561,1,,0
GENFELIXVIA,"GRENOBLE, FELIX VIALLET",45.19073,5.71847,1,,0
GENFIANCEY,"SAINT-EGREVE, CHEMIN FIANCEY",45.22864,5.69171,1,,0
GENFLANVALM,"GRENOBLE, FLANDRIN - VALMY",45.18712,5.7445,1,,0
GENFLAUCLOS,"GRENOBLE, FLAUBERT - CLOS D'OR",45.17049,5.72791,1,,0
GENFLOTIBUL,"LE PONT-DE-CLAIX, FLOTTIBULLE",45.13803,5.7029,1,,0
GENFLOTTIBU,"LE PONT-DE-CLAIX, FLOTTIBULLE",45.13786,5.70205,1,,0
GENFOCH,"GRENOBLE, FOCH - FERRIE",45.18092,5.72255,1,,0
GENFOCHAIRE,"MONT-SAINT-MARTIN, FOCHAIRE",45.27158,5.67442,1,,0
GENFOCHFERI,"GRENOBLE, FOCH - FERRIE",45.1808,5.72256,1,,0
GENFONDRATE,"CLAIX, FOND RATEL",45.12215,5.68935,1,,0
GENFONTAGNE,"VARCES-ALLIERES-ET-RISSET, FONTAGNEUX",45.08728,5.70786,1,,0
GENFONTAHDV,"FONTAINE, FONTAINE HOTEL DE VILLE - LA SOURCE",45.19134,5.68727,1,,0
GENFONTAINA,"FONTAINE, LES FONTAINADES - LE VOG",45.18909,5.69844,1,,0
GENFONTANIL,"FONTANIL-CORNILLON, PALLUEL",45.25507,5.66148,1,,0
GENFONTANIM,"FONTANIL-CORNILLON, LE FONTANIL MAIRIE",45.25618,5.66633,1,,0
GENFONTCIM,"FONTANIL-CORNILLON, LE FONTANIL CIMETIERE",45.25823,5.66385,1,,0
GENFONVIEIL,"QUAIX-EN-CHARTREUSE, FONTVIEILLE",45.2592,5.7449,1,,0
GENFRBLUMET,"SASSENAGE, FRANCOIS BLUMET",45.20966,5.677,1,,0
GENFRENAIE,"VENON, LA FRENAIE",45.17338,5.79514,1,,0
GENFRQUESNA,"ECHIROLLES, FRANCOIS QUESNAY",45.1479,5.73517,1,,0
GENFURONNIE,"CLAIX, FURONNIERES",45.12596,5.67131,1,,0
GENGABFAURE,"SAINT-MARTIN-D'HERES, GABRIEL FAURE",45.19228,5.7643,1,,0
GENGAGNIERE,"SAINT-MARTIN-LE-VINOUX, LOUIS GAGNIERE",45.21485,5.68576,1,,0
GENGALOCHER,"SAINT-MARTIN-D'HERES, GALOCHERE",45.17878,5.77315,1,,0
GENGAMBETTA,"GRENOBLE, GAMBETTA",45.18845,5.72317,1,,0
GENGARCINS,"VIF, LES GARCINS",45.06315,5.66934,1,,0
GENGARDE,"SAINT-PAUL-DE-VARCES, LA GARDE",45.07049,5.65062,1,,0
GENGARENNE,"CORENC, LA GARENNE",45.22729,5.76583,1,,0
GENGARES,"GRENOBLE, GARES",45.19093,5.71541,1,,0
GENGARESNCF,"SAINT-EGREVE, LA BIOLLE - GARE",45.23522,5.66953,1,,0
GENGARLETTE,"SEYSSINS, GARLETTES",45.14748,5.67773,1,,0
GENGAVANIER,"SAINT-EGREVE, GAVANIERE",45.24122,5.68148,1,,0
GENGAY,"SAINT-MARTIN-D'HERES, GAY",45.18479,5.75086,1,,0
GENGAYLUSSA,"ECHIROLLES, GAY LUSSAC",45.13645,5.71214,1,,0
GENGDCHATEL,"SAINT-MARTIN-D'HERES, GRAND CHATELET",45.18194,5.74841,1,,0
GENGDTRONCH,"LA TRONCHE, GRANDE TRONCHE",45.20704,5.74578,1,,0
GENGERARPHI,"FONTAINE, GERARD PHILIPE",45.19647,5.67704,1,,0
GENGIERGARE,"GIERES, GIERES GARE - UNIVERSITES",45.18528,5.78458,1,,0
GENGIGNOUX,"GRENOBLE, MAURICE GIGNOUX",45.19421,5.72525,1,,0
GENGIRAUDIE,"VARCES-ALLIERES-ET-RISSET, LA GIRAUDIERE",45.09503,5.67982,1,,0
GENGLAIEULS,"SAINT-MARTIN-D'HERES, GLAIEULS",45.16964,5.76358,1,,0
GENGLAIRAUX,"SAINT-EGREVE, LES GLAIRAUX",45.21852,5.67991,1,,0
GENGLIERES,"ECHIROLLES, LES GLIERES",45.14962,5.71167,1,,0
GENGRANCHAM,"CLAIX, GRANDS CHAMPS",45.11683,5.67345,1,,0
GENGRANDPRE,"SEYSSINET-PARISET, GRAND PRE",45.17178,5.69424,1,,0
GENGRANGE,"VIF, LA GRANGE",45.03933,5.66126,1,,0
GENGRANGECH,"EYBENS, LA GRANGE DU CHATEAU",45.14849,5.75257,1,,0
GENGRANGES,"ECHIROLLES, LES GRANGES",45.15696,5.72781,1,,0
GENGRANIER,"MEYLAN, GRANIER",45.21027,5.78453,1,,0
GENGRDGALET,"LE PONT-DE-CLAIX, GRAND GALET",45.13679,5.70813,1,,0
GENGRDPLACE,"GRENOBLE, GRAND'PLACE",45.15893,5.73179,1,,0
GENGRDSABLO,"LA TRONCHE, GRAND SABLON",45.19903,5.75,1,,0
GENGREHOTEL,"GRENOBLE, GRENOBLE HOTEL DE VILLE",45.18746,5.73779,1,,0
GENGRESIVAU,"CORENC, GRESIVAUDAN",45.20997,5.76177,1,,0
GENGROSCHEN,"VARCES-ALLIERES-ET-RISSET, LE GROS CHENE",45.07832,5.7021,1,,0
GENGRUGLIAS,"ECHIROLLES, GRUGLIASCO",45.15182,5.71016,1,,0
GENGUEBOUTE,"MEYLAN, GUE DU BOUTET",45.22869,5.78464,1,,0
GENGUERIMAN,"SAINT-MARTIN-LE-VINOUX, 16 AOUT 1944",45.20414,5.71545,1,,0
GENGUICHARD,"VAULNAVEYS-LE-HAUT, LES GUICHARDS",45.12759,5.81678,1,,0
GENGUSTRIVE,"GRENOBLE, GUSTAVE RIVET",45.18233,5.72813,1,,0
GENGUYMOCQU,"ECHIROLLES, GUY MOCQUET",45.14548,5.72585,1,,0
GENHAUTMEL,"MEYLAN, HAUTS DE MEYLAN (EXPRESS)",45.21835,5.77923,1,,0
GENHBERLUNI,"SAINT-MARTIN-D'HERES, HECTOR BERLIOZ - UNIVERSITES",45.19137,5.75866,1,,0
GENHDUNANT,"GRENOBLE, HENRI DUNANT",45.17441,5.7083,1,,0
GENHEBOURG,"HERBEYS, HERBEYS LE BOURG",45.13887,5.79311,1,,0
GENHENRIWAL,"SAINT-MARTIN-D'HERES, HENRI WALLON",45.17563,5.76392,1,,0
GENHOPITSUD,"ECHIROLLES, HOPITAL SUD",45.1469,5.73274,1,,0
GENHOPMICHA,"LA TRONCHE, HOPITAL MICHALLON",45.19714,5.74758,1,,0
GENHOPOLICE,"GRENOBLE, HOTEL DE POLICE",45.1941,5.73571,1,,0
GENHORLOGE,"SAINT-MARTIN-LE-VINOUX, HORLOGE",45.21363,5.69885,1,,0
GENHOTELBEL,"SAINT-MARTIN-LE-VINOUX, HOTEL BELLEVUE",45.21153,5.71775,1,,0
GENHOUILLEB,"SAINT-MARTIN-D'HERES, HOUILLE BLANCHE",45.17794,5.7517,1,,0
GENHTMEYLAN,"MEYLAN, HAUTS DE MEYLAN",45.21845,5.77908,1,,0
GENILESCORD,"VEUREY-VOROIZE, ILES CORDEES",45.25971,5.62608,1,,0
GENILESMARS,"LE PONT-DE-CLAIX, ILES DE MARS",45.12976,5.69936,1,,0
GENILEVERTE,"GRENOBLE, ILE VERTE",45.19725,5.73676,1,,0
GENILIADE,"EYBENS, L'ILIADE",45.14744,5.74621,1,,0
GENIRENEJOL,"LE PONT-DE-CLAIX, IRENE JOLIOT CURIE",45.12742,5.69856,1,,0
GENIUTUFRAP,"GIERES, UNIVERSITES - IUT - UFRAPS",45.19766,5.77588,1,,0
GENJACOBINS,"VIF, JACOBINS",45.06461,5.69128,1,,0
GENJAILLIER,"MEYLAN, LES JAILLIERES",45.22064,5.78917,1,,0
GENJAVAUX,"EYBENS, LES JAVAUX",45.15041,5.74986,1,,0
GENJBRUANT,"VAULNAVEYS-LE-HAUT, ECOLE JULES BRUANT",45.12172,5.8144,1,,0
GENJEANNARC,"GRENOBLE, JEANNE D'ARC",45.18177,5.74518,1,,0
GENJEANPREV,"FONTAINE, JEAN PREVOST",45.18955,5.68276,1,,0
GENJFLANDRI,"MEYLAN, JULES FLANDRIN",45.20877,5.75903,1,,0
GENJRACINE,"GRENOBLE, JEAN RACINE",45.16682,5.74175,1,,0
GENJULESGUE,"FONTAINE, JULES GUESDE",45.19791,5.68878,1,,0
GENJULESREY,"LA TRONCHE, JULES REY",45.20658,5.74278,1,,0
GENKARBEN,"SAINT-EGREVE, KARBEN",45.24235,5.67093,1,,0
GENKARLMARX,"FONTAINE, KARL MARX",45.18652,5.68729,1,,0
GENLABATIE,"CLAIX, LA BATIE",45.11184,5.67193,1,,0
GENLABAUME,"SEYSSINS, LA BAUME",45.1595,5.68969,1,,0
GENLACHAL,"SAINT-MARTIN-LE-VINOUX, LACHAL",45.22114,5.72428,1,,0
GENLACHARRI,"LE GUA, LA CHARRIERE",45.01277,5.61587,1,,0
GENLACHENAI,"VENON, LA CHENAIE",45.17051,5.80746,1,,0
GENLACOMBE,"GIERES, LA COMBE",45.17412,5.79001,1,,0
GENLACUCHE,"VEUREY-VOROIZE, LA CUCHE",45.25606,5.62814,1,,0
GENLAFAURIE,"VENON, LA FAURIE",45.17542,5.79467,1,,0
GENLAFOY,"MEYLAN, LA FOY",45.2171,5.77634,1,,0
GENLAGAY,"BRESSON, BRESSON LAGAY",45.1408,5.74997,1,,0
GENLAGNEAU,"SEYSSINS, L'AGNEAU",45.1613,5.68296,1,,0
GENLAGOMMA,"SAINT-MARTIN-LE-VINOUX, LE GOMMA",45.21513,5.71914,1,,0
GENLALUIRE,"LE PONT-DE-CLAIX, LA LUIRE",45.14003,5.69852,1,,0
GENLAMONTA,"SAINT-EGREVE, LA MONTA",45.23799,5.68861,1,,0
GENLAMURAIL,"SEYSSINET-PARISET, MURAILLES",45.17825,5.69178,1,,0
GENLANGEVIN,"ECHIROLLES, PAUL LANGEVIN",45.14346,5.72313,1,,0
GENLAPIERRE,"LE GUA, LA PIERRE",44.98916,5.62198,1,,0
GENLAPLAINE,"VIF, LA PLAINE",45.06686,5.69213,1,,0
GENLAPOYA,"FONTAINE, LA POYA",45.19709,5.67222,1,,0
GENLARIVOI,"MONT-SAINT-MARTIN, LA RIVOIRE",45.26873,5.66854,1,,0
GENLARIVOIR,"SAINT-MARTIN-LE-VINOUX, LA RIVOIRE",45.22001,5.71507,1,,0
GENLASERRAL,"VENON, LA SERRALIERE",45.17283,5.79806,1,,0
GENLASURE,"FONTAINE, LA SURE",45.20279,5.68586,1,,0
GENLATUILE,"VAULNAVEYS-LE-HAUT, LA TUILERIE",45.13617,5.82423,1,,0
GENLAVALONE,"VIF, LA VALONNE",45.05031,5.67129,1,,0
GENLAVILLE,"VENON, LA VILLE",45.17409,5.80262,1,,0
GENLEBOURG,"EYBENS, LE BOURG",45.14781,5.75116,1,,0
GENLEBRET,"MEYLAN, LE BRET",45.2059,5.77174,1,,0
GENLECELLIE,"SEYSSINS, LE CELLIER",45.16149,5.67354,1,,0
GENLECHAMAN,"GIERES, LE CHAMANDIER",45.18309,5.7815,1,,0
GENLECHAPON,"VENON, LE CHAPON",45.17096,5.82185,1,,0
GENLECHENIL,"VENON, LE CHENIL",45.1631,5.8123,1,,0
GENLECHERES,"MEYLAN, LES LECHERES",45.20454,5.75928,1,,0
GENLEGATINE,"SAINT-MARTIN-LE-VINOUX, GATINET",45.22453,5.71878,1,,0
GENLEGORGET,"LA TRONCHE, LE GORGET",45.21529,5.74853,1,,0
GENLEGOUILL,"LE SAPPEY-EN-CHARTREUSE, LE GOUILLAT",45.25474,5.77111,1,,0
GENLEGUA,"SASSENAGE, LE GUA",45.20969,5.66443,1,,0
GENLEGUAMAI,"LE GUA, LE GUA MAIRIE",45.02211,5.64457,1,,0
GENLEJAPIN,"GIERES, LE JAPIN",45.18746,5.80706,1,,0
GENLEMARAIS,"SAINT-MARTIN-D'HERES, LE MARAIS",45.16412,5.75044,1,,0
GENLEMASGAC,"SAINT-MARTIN-LE-VINOUX, MAS CACHE",45.2177,5.72187,1,,0
GENLENCLOS,"BRIE-ET-ANGONNES, L'ENCLOS",45.1333,5.77484,1,,0
GENLEONJOUH,"GRENOBLE, LEON JOUHAUX",45.169,5.74444,1,,0
GENLEPARL,"SEYSSINS, LE PARLEMENT",45.15864,5.67447,1,,0
GENLEPERROU,"VENON, LE PERROUD",45.17245,5.81036,1,,0
GENLEPLATR,"JARRIE, LE PLATRE",45.11776,5.7479,1,,0
GENLEPLATRE,"VAULNAVEYS-LE-BAS, LE PLATRE",45.09398,5.79326,1,,0
GENLEPRIOU,"SEYSSINS, LE PRIOU",45.15698,5.6788,1,,0
GENLEREFUGE,"VIF, LE REFUGE",45.07462,5.69959,1,,0
GENLEREYNET,"VENON, LE REYNET",45.16989,5.81322,1,,0
GENLERIF,"VIF, LE RIF",45.0323,5.65546,1,,0
GENLERONZA,"LA TRONCHE, LE RONZAN",45.20785,5.74152,1,,0
GENLESALLAS,"VIZILLE, LES ALLAS",45.07547,5.7786,1,,0
GENLESBAINS,"GRENOBLE, LES BAINS",45.17821,5.74264,1,,0
GENLESCOMBE,"SAINT-MARTIN-LE-VINOUX, LES COMBES",45.20964,5.718,1,,0
GENLESCOTES,"SEYSSINS, LES COTES",45.15606,5.6713,1,,0
GENLESECOLE,"EYBENS, LES ECOLES",45.16143,5.74306,1,,0
GENLESESSAR,"GRENOBLE, LES ESSARTS",45.1593,5.71376,1,,0
GENLESFAURE,"LE GUA, LES FAURES",45.01439,5.61354,1,,0
GENLESFAUVE,"SAINT-MARTIN-LE-VINOUX, LES FAUVETTES",45.20703,5.71731,1,,0
GENLESILES,"SEYSSINET-PARISET, LES ILES",45.1841,5.69716,1,,0
GENLESPIES,"SASSENAGE, LES PIES",45.19957,5.66989,1,,0
GENLEVERNAY,"MIRIBEL-LANCHATRE, LE VERNAY",44.97015,5.60875,1,,0
GENLEVETIER,"SAINT-MARTIN-LE-VINOUX, LEVETIERE",45.22629,5.72548,1,,0
GENLHERMITA,"SAINT-MARTIN-LE-VINOUX, L'HERMITAGE",45.21501,5.70418,1,,0
GENLMICHEL,"GRENOBLE, LOUISE MICHEL",45.16976,5.71287,1,,0
GENLOUISJOU,"GRENOBLE, LOUIS JOUVET",45.16999,5.73712,1,,0
GENLTE,"VIZILLE, LTE",45.06912,5.76648,1,,0
GENLYCEETEC,"VIZILLE, VIZILLE LTE",45.06908,5.76645,1,,0
GENLYCGRESI,"MEYLAN, LYCEE DU GRESIVAUDAN - BACHAIS",45.21403,5.77904,1,,0
GENLYSROUGE,"GRENOBLE, LYS ROUGE",45.17304,5.71057,1,,0
GENMADELEIN,"GRENOBLE, MADELEINE",45.18515,5.74324,1,,0
GENMAICOM,"SAINT-MARTIN-D'HERES, MAISON COMMUNALE",45.1842,5.754,1,,0
GENMAICULTU,"GRENOBLE, MC2: MAISON DE LA CULTURE",45.17346,5.73196,1,,0
GENMAINNATI,"GRENOBLE, MARCHE D'INTERET NATIONAL",45.17354,5.71805,1,,0
GENMAIRIECO,"CORENC, MAIRIE-CONDAMINE",45.21118,5.75092,1,,0
GENMAIRIESM,"SAINT-MARTIN-LE-VINOUX, HOTEL DE VILLE",45.20826,5.70685,1,,0
GENMAISANCI,"GRENOBLE, MAISON DES ANCIENS",45.15975,5.72325,1,,0
GENMAISBLAN,"SAINT-MARTIN-D'HERES, MAISONS BLANCHES",45.16617,5.7646,1,,0
GENMAISNEUV,"EYBENS, MAISONS NEUVES",45.16491,5.74252,1,,0
GENMAISON,"VAULNAVEYS-LE-BAS, MAISON BLANCHE",45.11181,5.80512,1,,0
GENMAISONCO,"SAINT-MARTIN-D'HERES, MAISON COMMUNALE",45.18412,5.75414,1,,0
GENMAISONNA,"FONTAINE, LOUIS MAISONNAT",45.18912,5.69409,1,,0
GENMALACHER,"MEYLAN, MALACHER",45.21122,5.78722,1,,0
GENMALADIER,"SASSENAGE, MALADIERE",45.20773,5.68048,1,,0
GENMALHERBE,"GRENOBLE, MALHERBE",45.16897,5.73296,1,,0
GENMALHIVER,"CLAIX, MALHIVERT",45.13254,5.66688,1,,0
GENMALISSOL,"VARCES-ALLIERES-ET-RISSET, MALISSOLLES",45.08396,5.7047,1,,0
GENMALLIFAU,"GRENOBLE, MALLIFAUD",45.18033,5.73507,1,,0
GENMARAT,"FONTAINE, MARAT",45.19915,5.68284,1,,0
GENMARCEAU,"GRENOBLE, MARCEAU JARDIN DES VALLONS",45.18245,5.72217,1,,0
GENMARCELLI,"LE PONT-DE-CLAIX, MARCELLINE",45.12553,5.69795,1,,0
GENMARCHAND,"VAULNAVEYS-LE-HAUT, MARCHANDISES",45.11483,5.80766,1,,0
GENMARCSANG,"SEYSSINS, MARC SANGNIER",45.16486,5.68915,1,,0
GENMARESIST,"GRENOBLE, MARTYRS - RESISTANCE",45.2081,5.69661,1,,0
GENMARIECUR,"ECHIROLLES, MARIE CURIE",45.14572,5.71708,1,,0
GENMARITELL,"BRESSON, LA MARITELLE",45.14162,5.74135,1,,0
GENMARRONNI,"VEUREY-VOROIZE, LES MARRONNIERS",45.27636,5.61105,1,,0
GENMASDESIL,"SEYSSINS, MAS DES ILES",45.16727,5.69424,1,,0
GENMASGARNI,"VIF, MAS GARNI",45.06078,5.68819,1,,0
GENMASSEGU,"VIF, LE MASSEGU",45.05194,5.67464,1,,0
GENMASSENET,"GRENOBLE, MASSENET",45.16771,5.72108,1,,0
GENMAUPERTJ,"JARRIE, MAUPERTUIS",45.10558,5.74645,1,,0
GENMAUPERTU,"MEYLAN, MAUPERTUIS",45.21285,5.79719,1,,0
GENMAYENCIN,"GIERES, MAYENCIN - CHAMP ROMAN",45.18491,5.77895,1,,0
GENMEINGET,"SAINT-PAUL-DE-VARCES, LE MEINGET",45.07973,5.66297,1,,0
GENMETRA,"BRIE-ET-ANGONNES, LES METRAUX",45.12164,5.78504,1,,0
GENMEYLMAIR,"MEYLAN, MEYLAN MAIRIE",45.20928,5.7785,1,,0
GENMICHALLO,"LA TRONCHE, MICHALLON",45.20028,5.74533,1,,0
GENMIRIBEL,"MIRIBEL-LANCHATRE, MIRIBEL",44.97466,5.621,1,,0
GENMOLLARD,"CORENC, ROCHASSON",45.22364,5.7678,1,,0
GENMOLLARDP,"SASSENAGE, MOLLARD - PICHON",45.21361,5.65249,1,,0
GENMOLLARSA,"LE SAPPEY-EN-CHARTREUSE, LES JONQUILLES",45.26467,5.7742,1,,0
GENMONMOUSS,"ECHIROLLES, MONMOUSSEAU",45.15354,5.71188,1,,0
GENMONTCHAB,"VIZILLE, MONTCHABOUD CROISEMENT",45.09161,5.77688,1,,0
GENMONTCHAV,"MONTCHABOUD, MONTCHABOUD VILLAGE",45.09568,5.76341,1,,0
GENMONTFLEU,"CORENC, MONTFLEURY",45.21186,5.75637,1,,0
GENMONTLIVE,"MEYLAN, MONTLIVET",45.22998,5.78981,1,,0
GENMONTQUAI,"QUAIX-EN-CHARTREUSE, MONT-QUAIX",45.25575,5.74284,1,,0
GENMONUMENT,"CORENC, MONUMENT",45.217,5.7536,1,,0
GENMORTES,"DOMENE, LES MORTES",45.19635,5.82887,1,,0
GENMOUCHERO,"CLAIX, MOUCHEROTTE",45.12579,5.68096,1,,0
GENMOUNIER,"GRENOBLE, MOUNIER",45.179,5.73179,1,,0
GENMOUTONNE,"SAINT-EGREVE, MOUTONNEES",45.22838,5.68422,1,,0
GENMURET,"SAINT-EGREVE, MURET",45.22618,5.68616,1,,0
GENMURIERS,"MEYLAN, LES MURIERS",45.21605,5.77947,1,,0
GENMUSEEDAU,"GRENOBLE, MUSEE DAUPHINOIS",45.19497,5.72614,1,,0
GENMUSGEOCH,"ECHIROLLES, MUSEE GEO CHARLES",45.14878,5.70172,1,,0
GENMUSHEBER,"LA TRONCHE, MUSEE HEBERT",45.20564,5.74888,1,,0
GENMUTUALIT,"GRENOBLE, MUTUALITE",45.19046,5.73663,1,,0
GENNALETTES,"SEYSSINS, LES NALETTES",45.15211,5.68897,1,,0
GENNAMIERE,"MONT-SAINT-MARTIN, CHEMIN DE NAMIERE",45.27232,5.67853,1,,0
GENNAPOLEON,"BRIE-ET-ANGONNES, NAPOLEON - SOUVEYRON",45.13109,5.77703,1,,0
GENNARBONNE,"SAINT-MARTIN-LE-VINOUX, NARBONNE",45.21398,5.71026,1,,0
GENNERON,"SAINT-MARTIN-LE-VINOUX, NERON",45.21782,5.69334,1,,0
GENNEYRBELL,"SAINT-MARTIN-D'HERES, NEYRPIC - BELLEDONNE",45.18676,5.75654,1,,0
GENNODAMLAC,"VARCES-ALLIERES-ET-RISSET, NOTRE-DAME DE LACHAL",45.08736,5.69011,1,,0
GENNOTREDAM,"GRENOBLE, NOTRE-DAME - MUSEE",45.19358,5.73214,1,,0
GENNOYARBAS,"NOYAREY, BASCULE",45.24292,5.63217,1,,0
GENNOYARSTJ,"NOYAREY, SAINT-JEAN",45.23891,5.63425,1,,0
GENNOYVILLA,"NOYAREY, VILLAGE",45.24726,5.62711,1,,0
GENODYSSEE,"EYBENS, ODYSSEE",45.15357,5.7483,1,,0
GENOISEAUX,"CORENC, LES OISEAUX",45.21506,5.76867,1,,0
GENORATOIRE,"DOMENE, L'ORATOIRE",45.19819,5.83412,1,,0
GENORIEL,"VARCES-ALLIERES-ET-RISSET, L'ORIEL",45.08993,5.68358,1,,0
GENOVALIE,"SASSENAGE, L'OVALIE",45.20967,5.66695,1,,0
GENPABLONER,"SAINT-MARTIN-D'HERES, PABLO NERUDA",45.17395,5.76074,1,,0
GENPAJON,"CORENC, CHARLES PAJON",45.2132,5.75244,1,,0
GENPALJUSTI,"GRENOBLE, PALAIS DE JUSTICE",45.19164,5.71086,1,,0
GENPAMPRES,"CLAIX, LES PAMPRES",45.11536,5.66589,1,,0
GENPARCBICH,"NOYAREY, PARC DES BICHES",45.24919,5.62928,1,,0
GENPARCS,"SASSENAGE, LES PARCS",45.21658,5.652,1,,0
GENPASCAL,"LA TRONCHE, PASCAL",45.1995,5.75527,1,,0
GENPAULCOCA,"GRENOBLE, PAUL COCAT",45.17226,5.74478,1,,0
GENPAULELUA,"SAINT-MARTIN-D'HERES, PAUL ELUARD",45.16512,5.74887,1,,0
GENPAVILLON,"VARCES-ALLIERES-ET-RISSET, PAVILLON",45.1084,5.67425,1,,0
GENPCLAUDEL,"GRENOBLE, PAUL CLAUDEL",45.17336,5.73851,1,,0
GENPEAGEDEV,"VIZILLE, PEAGE DE VIZILLE",45.05704,5.77332,1,,0
GENPELISIER,"VARCES-ALLIERES-ET-RISSET, PELISSIERE",45.07057,5.67506,1,,0
GENPELLOUTI,"ECHIROLLES, FERNAND PELLOUTIER",45.15084,5.71482,1,,0
GENPERCEVAL,"SEYSSINET-PARISET, PERCEVALIERE",45.17016,5.68682,1,,0
GENPERIBROS,"SAINT-MARTIN-D'HERES, PERI - BROSSOLETTE",45.18771,5.75142,1,,0
GENPERIERES,"VEUREY-VOROIZE, PERRIERES",45.26209,5.6247,1,,0
GENPEROUSES,"CLAIX, LES PEROUSES",45.12456,5.67937,1,,0
GENPERRIERE,"GIERES, LA PERRIERE",45.18902,5.81006,1,,0
GENPETIBRIO,"VIF, LE PETIT BRION",45.06225,5.69018,1,,0
GENPFMITTER,"SEYSSINS, PARC FRANCOIS MITTERRAND",45.16287,5.6853,1,,0
GENPHEROULT,"ECHIROLLES, PAUL HEROULT",45.14728,5.71347,1,,0
GENPIEDGIER,"GIERES, PIED DE GIERES",45.18388,5.79852,1,,0
GENPIERCOUR,"SAINT-MARTIN-D'HERES, PIERRE COURTADE",45.17956,5.76397,1,,0
GENPIERRELO,"SAINT-MARTIN-D'HERES, PIERRE LOTI",45.16664,5.74646,1,,0
GENPIERSEMA,"SAINT-MARTIN-D'HERES, PIERRE SEMARD",45.18128,5.75712,1,,0
GENPINEA,"SAINT-EGREVE, LA PINEA - ST ROBERT",45.23565,5.67549,1,,0
GENPIQUEPIE,"SAINT-MARTIN-LE-VINOUX, HOTEL DE VILLE",45.20792,5.70659,1,,0
GENPISBUCLO,"MEYLAN, PISCINE DES BUCLOS",45.20888,5.77538,1,,0
GENPLACA,"CHAMPAGNIER, PLACE DU LACA",45.11379,5.72863,1,,0
GENPLACECYM,"GRENOBLE, PLACE CYMAISE",45.195,5.72917,1,,0
GENPLACEQUA,"QUAIX-EN-CHARTREUSE, QUAIX EN CHARTREUSE PLACE",45.25319,5.71732,1,,0
GENPLACESAP,"LE SAPPEY-EN-CHARTREUSE, LE SAPPEY EN CHARTREUSE PLACE",45.25948,5.77706,1,,0
GENPLACEVIL,"SEYSSINS, PLACE DU VILLAGE",45.15583,5.68083,1,,0
GENPLACMARC,"FONTAINE, PLACE DU MARCHE CACHIN",45.19588,5.69065,1,,0
GENPLAINE,"SEYSSINET-PARISET, LA PLAINE",45.1726,5.69689,1,,0
GENPLAINEDS,"GIERES, PLAINE DES SPORTS",45.18805,5.78421,1,,0
GENPLAINEFL,"MEYLAN, PLAINE FLEURIE",45.20332,5.76211,1,,0
GENPLALOUIS,"MEYLAN, PLACE DE LA LOUISIANE",45.20876,5.76321,1,,0
GENPLANF,"PROVEYSIEUX, PLANFAY BAS",45.27756,5.71576,1,,0
GENPLANFAY,"PROVEYSIEUX, PLANFAY HAUT",45.27874,5.71787,1,,0
GENPLATANES,"VARCES-ALLIERES-ET-RISSET, LES PLATANES",45.0893,5.67546,1,,0
GENPLGEANTS,"GRENOBLE, PLACE DES GEANTS",45.16174,5.73858,1,,0
GENPLIBERAT,"SASSENAGE, PLACE DE LA LIBERATION",45.20682,5.66281,1,,0
GENPLREPUBL,"GIERES, PLACE DE LA REPUBLIQUE",45.18209,5.79257,1,,0
GENPOLESUD,"GRENOBLE, POLESUD - ALPEXPO",45.15715,5.73384,1,,0
GENPOLOTTI,"ECHIROLLES, ANTOINE POLOTTI",45.1486,5.72251,1,,0
GENPOLYGSCI,"GRENOBLE, POLYGONE SCIENTIFIQUE",45.20457,5.69853,1,,0
GENPOMAR,"PROVEYSIEUX, POMAREY BAS",45.28045,5.70961,1,,0
GENPOMAREY,"PROVEYSIEUX, POMAREY",45.28295,5.71217,1,,0
GENPOMMERAI,"VARCES-ALLIERES-ET-RISSET, LA POMMERAIE",45.08765,5.67206,1,,0
GENPOMPIDOU,"CLAIX, POMPIDOU",45.11993,5.69255,1,,0
GENPONSARD,"GRENOBLE, PONSARD",45.17597,5.7372,1,,0
GENPONTGENE,"VIF, LE PONT DE GENEVREY",45.02852,5.65171,1,,0
GENPONTMAS,"VIZILLE, LE PONT DU MAS",45.08797,5.78954,1,,0
GENPORTAILR,"SAINT-MARTIN-D'HERES, PORTAIL ROUGE",45.1814,5.76347,1,,0
GENPORTGRES,"SAINT-MARTIN-D'HERES, PORTE DU GRESIVAUDAN",45.18253,5.77665,1,,0
GENPOSTE,"CLAIX, POSTE",45.1211,5.67214,1,,0
GENPOTIE,"SAINT-MARTIN-D'HERES, POTIE",45.17088,5.75859,1,,0
GENPOULAT,"SAINT-PAUL-DE-VARCES, LE POULAT",45.07444,5.66002,1,,0
GENPRAPARIS,"SASSENAGE, PRAPARIS USINE",45.22925,5.6497,1,,0
GENPRAPAROS,"NOYAREY, PRAPARIS - LES ROSES",45.23226,5.64503,1,,0
GENPRECATLA,"MEYLAN, PRE CATLAN",45.23002,5.78733,1,,0
GENPREDIEU,"SAINT-EGREVE, FIANCEY - PREDIEU",45.22314,5.68863,1,,0
GENPREFLEUR,"SASSENAGE, PRE FLEURY",45.20183,5.66763,1,,0
GENPRELENFR,"LE GUA, PRELENFREY EGLISE",45.01693,5.6133,1,,0
GENPREMOL,"POISAT, PREMOL",45.15752,5.76412,1,,0
GENPRENOUVE,"SEYSSINS, PRE NOUVEL",45.1512,5.68077,1,,0
GENPREORME,"VARCES-ALLIERES-ET-RISSET, PRE DE L'ORME",45.11039,5.68855,1,,0
GENPRESQUIL,"GRENOBLE, PRESQU'ILE",45.20594,5.69971,1,,0
GENPRIEURE,"DOMENE, LE PRIEURE",45.20489,5.83576,1,,0
GENPRISME,"SEYSSINS, LE PRISME",45.16639,5.69055,1,,0
GENPROMOSOC,"SAINT-MARTIN-D'HERES, PROMOTION SOCIALE",45.18714,5.76958,1,,0
GENPROVIDEN,"CORENC, PROVIDENCE",45.22111,5.76456,1,,0
GENPTCHATEL,"VEUREY-VOROIZE, PETIT CHATELARD",45.27608,5.61213,1,,0
GENPTCLXMAI,"LE PONT-DE-CLAIX, PONT-DE-CLAIX MAIRIE",45.12288,5.6977,1,,0
GENPTROUGE,"CLAIX, PONT ROUGE",45.11832,5.69254,1,,0
GENPTTRONCH,"LA TRONCHE, PETITE TRONCHE",45.20195,5.73416,1,,0
GENPTVENCE,"SAINT-EGREVE, PONT DE VENCE",45.23009,5.6823,1,,0
GENQUINZAIN,"ECHIROLLES, QUINZAINE",45.15149,5.70664,1,,0
GENRABOT,"GRENOBLE, LE RABOT",45.19505,5.72342,1,,0
GENRAFOUR,"FONTANIL-CORNILLON, RAFOUR",45.25117,5.66713,1,,0
GENRAMPE,"ECHIROLLES, LA RAMPE - CENTRE-VILLE",45.14879,5.71787,1,,0
GENRAYCHANA,"GRENOBLE, RAYMOND CHANAS",45.15968,5.73822,1,,0
GENRENECASS,"DOMENE, RENE CASSIN",45.2045,5.84416,1,,0
GENRENETHOM,"ECHIROLLES, RENE THOMAS",45.15393,5.70747,1,,0
GENREPLAT,"BRIE-ET-ANGONNES, LE REPLAT",45.1209,5.78154,1,,0
GENREPOSOIR,"SAINT-MARTIN-LE-VINOUX, LE REPOSOIR",45.20945,5.71644,1,,0
GENREVIREE,"MEYLAN, LA REVIREE",45.20733,5.76796,1,,0
GENREVIREES,"MEYLAN, REVIREE - SAYETTES",45.21205,5.76638,1,,0
GENRHINDANU,"GRENOBLE, RHIN ET DANUBE",45.17497,5.70522,1,,0
GENRIGAU,"PROVEYSIEUX, GARCINIERE",45.25164,5.69488,1,,0
GENRIPAILLE,"SAINT-MARTIN-LE-VINOUX, RIPAILLERE",45.22682,5.72078,1,,0
GENRISSET,"VARCES-ALLIERES-ET-RISSET, RISSET",45.10723,5.67309,1,,0
GENRIVETS,"MURIANETTE, LES RIVETS",45.19482,5.82455,1,,0
GENRIVOIRE,"SASSENAGE, RIVOIRE DE LA DAME",45.21493,5.65169,1,,0
GENROBESPIE,"POISAT, ROBESPIERRE",45.15985,5.75718,1,,0
GENROCHEFOR,"VARCES-ALLIERES-ET-RISSET, LE ROCHEFORT",45.10164,5.68534,1,,0
GENROCHEPLA,"SAINT-MARTIN-D'HERES, ROCHEPLANE",45.1783,5.76236,1,,0
GENROCHEPLE,"SAINT-EGREVE, ROCHEPLEINE",45.24459,5.67517,1,,0
GENROCHERES,"SAINT-EGREVE, ROCHER D'ESCALADE",45.2432,5.67907,1,,0
GENROLLANDI,"SASSENAGE, LA ROLLANDIERE",45.21501,5.66112,1,,0
GENRONDEAU,"GRENOBLE, LE RONDEAU",45.16024,5.7096,1,,0
GENRONDEURO,"VARCES-ALLIERES-ET-RISSET, ROND-POINT DE L'EUROPE",45.09312,5.68375,1,,0
GENRONZY,"CLAIX, LA RONZY",45.12083,5.67593,1,,0
GENROSERAIE,"GIERES, ROSERAIE",45.17901,5.78101,1,,0
GENROSES,"CLAIX, LES ROSES",45.11791,5.66739,1,,0
GENROSSETS,"LE GUA, LES ROSSETS",45.01657,5.64083,1,,0
GENROUDIER,"QUAIX-EN-CHARTREUSE, ROUDIER",45.24812,5.73164,1,,0
GENROZATIER,"VARCES-ALLIERES-ET-RISSET, ROZATIERE",45.08706,5.70241,1,,0
GENRUEALPES,"FONTAINE, RUE DES ALPES",45.19778,5.68027,1,,0
GENRUEESPER,"VIF, RUE DE L'ESPERE",45.05481,5.67762,1,,0
GENRUENORD,"VIF, RUE DU NORD",45.05432,5.67537,1,,0
GENRUEPASTE,"FONTAINE, RUE PASTEUR",45.19421,5.69473,1,,0
GENRUIRES,"EYBENS, LES RUIRES-BOETIE",45.14932,5.74122,1,,0
GENRUISSET,"NOYAREY, LE RUISSET",45.25006,5.63156,1,,0
GENSABLONS,"LA TRONCHE, SABLONS",45.19678,5.75299,1,,0
GENSACRISTI,"VIF, RUE DE LA SACRISTIE",45.07081,5.69538,1,,0
GENSAILLANT,"LE GUA, LES SAILLANTS",45.02463,5.6458,1,,0
GENSAINTEYN,"LE SAPPEY-EN-CHARTREUSE, SAINT-EYNARD",45.24926,5.76534,1,,0
GENSAINTMIC,"CLAIX, SAINT-MICHEL",45.11203,5.68452,1,,0
GENSALENGRO,"GRENOBLE, SALENGRO",45.17566,5.70887,1,,0
GENSAMMARIN,"SAINT-EGREVE, SAN MARINO BARRAGE",45.23675,5.65973,1,,0
GENSARCENA,"SARCENAS, SARCENAS LE VILLAGE",45.2734,5.75861,1,,0
GENSARCROZ,"SARCENAS, PONT DU CROZ",45.27669,5.75747,1,,0
GENSAULES,"EYBENS, LES SAULES",45.16292,5.74115,1,,0
GENSAVOY,"PROVEYSIEUX, SAVOYARDIERE",45.27833,5.70833,1,,0
GENSCIENSOC,"SAINT-MARTIN-D'HERES, SCIENCES SOCIALES",45.19017,5.76921,1,,0
GENSEYHDV,"SEYSSINET-PARISET, SEYSSINET-PARISET HOTEL DE VILLE",45.18078,5.69707,1,,0
GENSEYSROND,"SEYSSINS, SEYSSINS RONDEAU",45.16035,5.69373,1,,0
GENSEYSVILL,"SEYSSINET-PARISET, VILLAGE",45.16819,5.67886,1,,0
GENSIMIA,"JARRIE, LES SIMIANES",45.11612,5.75778,1,,0
GENSMHVILLA,"SAINT-MARTIN-D'HERES, SAINT-MARTIN-D'HERES VILLAGE",45.16512,5.76552,1,,0
GENSONNANT,"GIERES, LE SONNANT",45.18161,5.78271,1,,0
GENSOUSFRET,"QUAIX-EN-CHARTREUSE, SOUS LA FRETTE",45.25036,5.73532,1,,0
GENSOUSPERO,"VENON, SOUS-PERROUD",45.1703,5.81077,1,,0
GENSOUVE,"BRIE-ET-ANGONNES, SOUVEYRON",45.13061,5.77825,1,,0
GENSOUVEVI,"BRIE-ET-ANGONNES, LE COIN",45.12799,5.78511,1,,0
GENSPAULMAI,"SAINT-PAUL-DE-VARCES, PLACE",45.07167,5.6426,1,,0
GENSTADLESD,"GRENOBLE, STADE LESDIGUIERES",45.16384,5.7108,1,,0
GENSTALALLI,"GRENOBLE, STALINGRAD-ALLIES",45.17188,5.72395,1,,0
GENSTAUGUST,"GRENOBLE, SAINT-AUGUSTIN",45.17827,5.74591,1,,0
GENSTBARTHE,"LE GUA, SAINT-BARTHELEMY",44.99986,5.62946,1,,0
GENSTBRUNO,"GRENOBLE, SAINT-BRUNO",45.18592,5.71403,1,,0
GENSTBRUNOT,"GRENOBLE, SAINT-BRUNO",45.18833,5.71342,1,,0
GENSTEANGE,"VARCES-ALLIERES-ET-RISSET, SAINT-ANGE",45.09683,5.68367,1,,0
GENSTECLAIR,"GRENOBLE, SAINTE-CLAIRE - LES HALLES",45.19146,5.73067,1,,0
GENSTEGVGAR,"SAINT-EGREVE, SAINT EGREVE GARE",45.23531,5.67151,1,,0
GENSTEYNARD,"FONTAINE, SAINT-EYNARD",45.20113,5.69021,1,,0
GENSTGERMAI,"LA TRONCHE, SAINT-GERMAIN",45.21015,5.74408,1,,0
GENSTJBOSCO,"MEYLAN, SAINT-JEAN BOSCO",45.21282,5.77305,1,,0
GENSTLAUREN,"GRENOBLE, SAINT-LAURENT",45.19802,5.73257,1,,0
GENSTMARTVI,"SAINT-MARTIN-LE-VINOUX, ST M.LE VINOUX - MAIRIE",45.20785,5.70653,1,,0
GENSTMURY,"MEYLAN, SAINT-MURY",45.21947,5.78613,1,,0
GENSTMVVILA,"SAINT-MARTIN-LE-VINOUX, PLACE DU VILLAGE",45.20386,5.71638,1,,0
GENSTROCH,"GRENOBLE, SAINT-ROCH",45.19173,5.73799,1,,0
GENSTVICTOR,"MEYLAN, SAINT-VICTOR",45.2286,5.78928,1,,0
GENSUDGALAX,"ECHIROLLES, SUD GALAXIE",45.1501,5.72484,1,,0
GENSURIEUX,"ECHIROLLES, SURIEUX",45.15846,5.72192,1,,0
GENTAILLEES,"SAINT-MARTIN-D'HERES, LES TAILLEES - UNIVERSITES",45.19215,5.75784,1,,0
GENTAILLIS,"CLAIX, LES TAILLIS",45.11315,5.66577,1,,0
GENTAVER,"BRIE-ET-ANGONNES, TAVERNOLLES",45.13628,5.77037,1,,0
GENTEISSEIR,"GRENOBLE, TEISSEIRE",45.17081,5.74016,1,,0
GENTERRATS,"GIERES, LES TERRATS",45.16914,5.79285,1,,0
GENTERRAY,"MEYLAN, LIONEL TERRAY",45.21035,5.76713,1,,0
GENTHEVE,"JARRIE, LES THEVENETS",45.11571,5.75102,1,,0
GENTISSERAN,"VARCES-ALLIERES-ET-RISSET, LES TISSERANDS",45.09203,5.67463,1,,0
GENTRAVERS,"VAULNAVEYS-LE-BAS, LES TRAVERS",45.09132,5.79162,1,,0
GENTREFFORI,"SASSENAGE, TREFFORINE",45.20446,5.66499,1,,0
GENTREILLE,"MEYLAN, LA TREILLE",45.22639,5.79109,1,,0
GENTROISDAU,"GRENOBLE, VICTOR HUGO",45.19052,5.72485,1,,0
GENTRONCHOP,"GRENOBLE, LA TRONCHE HOPITAL",45.20061,5.74123,1,,0
GENTUILERIE,"SEYSSINS, TUILERIE",45.16906,5.69215,1,,0
GENURIAGE,"SAINT-MARTIN-D'URIAGE, URIAGE GARE",45.14395,5.82915,1,,0
GENURIOL,"VIF, URIOL",45.06063,5.66856,1,,0
GENUSINENOR,"VIF, L'USINE NORD",45.03,5.65281,1,,0
GENVAILCOUT,"ECHIROLLES, VAILLANT-COUTURIER",45.1482,5.70554,1,,0
GENVALALLIE,"CLAIX, VAL D'ALLIERES",45.1069,5.66532,1,,0
GENVALEYBEN,"EYBENS, VAL D'EYBENS",45.15905,5.74558,1,,0
GENVALLCATA,"GRENOBLE, VALLIER - CATANE",45.17968,5.70546,1,,0
GENVALLIBE,"GRENOBLE, VALLIER - LIBERATION",45.17975,5.71622,1,,0
GENVALLJAUR,"GRENOBLE, VALLIER - JAURES",45.18019,5.71581,1,,0
GENVALMY,"GRENOBLE, FLANDRIN - VALMY",45.18719,5.7448,1,,0
GENVARCESRE,"VARCES-ALLIERES-ET-RISSET, REPUBLIQUE",45.08635,5.68298,1,,0
GENVASSIEUX,"ECHIROLLES, VASSIEUX",45.14303,5.70002,1,,0
GENVAULBAS,"VAULNAVEYS-LE-BAS, VAULNAVEYS-LE-BAS LE VILLAGE",45.10549,5.80042,1,,0
GENVAULHAUT,"VAULNAVEYS-LE-HAUT, VAULNAVEYS-LE-HAUT LE VILLAGE",45.11934,5.81099,1,,0
GENVENCEECO,"SAINT-EGREVE, VENCE ECOPARC",45.22773,5.66846,1,,0
GENVENONMAI,"VENON, VENON MAIRIE",45.17165,5.80482,1,,0
GENVERCORS,"LA TRONCHE, VERCORS",45.20065,5.75103,1,,0
GENVERDERET,"EYBENS, LE VERDERET",45.14694,5.75428,1,,0
GENVERDUN,"GRENOBLE, VERDUN - PREFECTURE",45.1883,5.73144,1,,0
GENVERLAINE,"GRENOBLE, VERLAINE",45.16193,5.71613,1,,0
GENVERNES,"DOMENE, LES VERNES",45.20713,5.83398,1,,0
GENVERNET,"JARRIE, LE VERNET CROIX",45.09617,5.73978,1,,0
GENVEUREYEG,"VEUREY-VOROIZE, EGLISE",45.27225,5.61564,1,,0
GENVEUREYMA,"VEUREY-VOROIZE, MAIRIE",45.27292,5.61302,1,,0
GENVEUREYRI,"VEUREY-VOROIZE, LA RIVE",45.26981,5.61825,1,,0
GENVEYRET,"GRENOBLE, VEYRET",45.19483,5.7248,1,,0
GENVICTHUGO,"GRENOBLE, VICTOR HUGO",45.18906,5.72533,1,,0
GENVIEUXDON,"SASSENAGE, VIEUX DONJON",45.21138,5.64977,1,,0
GENVIFGEND,"VIF, VIF GENDARMERIE",45.05301,5.67655,1,,0
GENVIFMAIRI,"VIF, VIF MAIRIE",45.05584,5.66897,1,,0
GENVIGNATE,"GIERES, VIGNATE",45.18923,5.77806,1,,0
GENVIGNES,"BRESSON, LES VIGNES",45.13809,5.74574,1,,0
GENVIGNY,"GRENOBLE, VIGNY",45.16744,5.72338,1,,0
GENVILLAGE,"ECHIROLLES, LE VILLAGE",45.14133,5.72057,1,,0
GENVILLOLYM,"GRENOBLE, VILLAGE OLYMPIQUE",45.16411,5.72404,1,,0
GENVISANCOU,"SAINT-EGREVE, VISANCOURT",45.23317,5.68606,1,,0
GENVISCOSE,"ECHIROLLES, VISCOSE",45.15738,5.70865,1,,0
GENXAVJOUVI,"GRENOBLE, XAVIER JOUVIN",45.1956,5.73009,1,,0
GENZASPEYRE,"VIF, Z.A. DES SPEYRES",45.0569,5.68184,1,,0
GENZELLAMEL,"SAINT-MARTIN-D'HERES, ZELLA MELHIS",45.16707,5.75354,1,,0
